ADDRESS,LON,LAT
"300 N DELEWARE AVE, DeLand, FL",-81.310165,29.031792
"400 PLUMOSA AV, Port Orange, FL",-80.979744,29.11044
"200 W FRENCH, Orange City, FL",-81.30017,28.95227
"1300 MOORE ST, Daytona Beach, FL",-81.05578,29.20751
"1000 N SUTTON CIR, Daytona Beach, FL",-81.03768,29.19903
"500 N ORANGE AV, DeLand, FL",-81.31404,29.035408
"400 W UNIVERSITY AV, DeLand, FL",-81.310104,29.03721
"100 KINGSTON AV, Daytona Beach, FL",-81.026,29.226768
"800 N NOVA RD, Daytona Beach, FL",-81.04738,29.219782
"600 WAYNE AV, New Smyrna Beach, FL",-80.93288,29.033327
"100 REEF RD, South Daytona, FL",-81.00346,29.182297
"1300 S RIDGEWOOD AV, Daytona Beach, FL",-81.04362,29.24923
"1600 DUNN AV, Daytona Beach, FL",-81.0618,29.204676
"400 BIG TREE RD, South Daytona, FL",-81.00606,29.173206
"100 E GRANADA BLVD, Ormond Beach, FL",-81.04451,29.29014
"400 BRENTWOOD DR, Daytona Beach, FL",-81.03594,29.227692
"2000 SCHULTE AV, Daytona Beach, FL",-80.99817,29.203009
"5500 RIDGEWOOD AV, Port Orange, FL",-80.97556,29.118652
"1000 RIDGEWOOD AV, Holly Hill, FL",-81.0401,29.242744
"700 MADISON AV, Daytona Beach, FL",-81.037346,29.220327
"4000 NOVA RD, Port Orange, FL",-81.00146,29.120985
"600 S KEECH ST, Daytona Beach, FL",-81.032,29.195316
"2700 EVERGREEN DR, Edgewater, FL",-80.893105,28.95439
"1600 SELMA AV, Holly Hill, FL",-81.05827,29.251244
"1800 S CLYDE MORRIS BLVD, Daytona Beach, FL",-81.038734,29.164026
"1600 LOCKHART ST, South Daytona, FL",-81.01811,29.17943
"100 RED OAK CIR, New Smyrna Beach, FL",-80.95045,29.069202
"6700 CALISTOGA CIR, Port Orange, FL",-81.03486,29.058565
"400 JEAN ST, Daytona Beach, FL",-81.03517,29.196348
"4000 SAXON DR, New Smyrna Beach, FL",-80.88138,29.00478
"700 S PARSONS AV, DeLand, FL",-81.30823,29.01718
"5600 CHRISTIANCY AV, Port Orange, FL",-80.9805,29.117744
"100 S MARTIN LUTHER KING BLVD, Daytona Beach, FL",-81.027954,29.207495
"200 ORCHARD ST, Port Orange, FL",-80.982315,29.129635
"1000 RUTH DR, Edgewater, FL",-80.90802,28.980259
"400 JOYCE ST, Edgewater, FL",-80.91129,28.984741
"100 W GEORGIA AVE, DeLand, FL",-81.303566,29.027184
"1000 S NOVA RD, Holly Hill, FL",-81.050095,29.22476
"5700 RIDGEWOOD AV, Port Orange, FL",-80.97353,29.113035
"1800 S CLYDE MORRIS BLVD, Daytona Beach, FL",-81.038734,29.164026
"700 N DIXIE FREEWAY, New Smyrna Beach, FL",-80.93082,29.034327
"100 N ATLANTIC AV, Daytona Beach, FL",-81.00897,29.228416
"600 S YONGE ST, Ormond Beach, FL",-81.05437,29.268278
"600 N DUSS ST, New Smyrna Beach, FL",-80.9346,29.028624
"1700 S CLYDE MORRIS BLVD, Daytona Beach, FL",-81.03874,29.165956
"6000 WHISPERING TREES LN, Port Orange, FL",-81.03483,29.094536
"700 E LINDENWOOD CIR, Ormond Beach, FL",-81.07165,29.302053
"500 FLAGLER AV, New Smyrna Beach, FL",-80.897,29.038567
"1100 S RIDGEWOOD AV, Daytona Beach, FL",-81.04183,29.245941
"500 CORAL TRACE BLVD, Edgewater, FL",-80.94331,28.955074
"500 ROYAL POINCIANA AV, DeLand, FL",-81.29397,29.002893
"400 S PINE ST, New Smyrna Beach, FL",-80.90074,29.036642
"2700 S WOODLAND BLVD, DeLand, FL",-81.31586,29.079731
"1100 S PALMETTO AV, Daytona Beach, FL",-81.01145,29.192392
"100 UNIVERSITY BLVD, Daytona Beach, FL",-81.02277,29.239689
"700 JEFFERSON ST, New Smyrna Beach, FL",-80.93299,29.024904
"4100 S ATLANTIC AV, New Smyrna Beach, FL",-80.87576,29.003325
"2800 LIME TREE DR, Edgewater, FL",-80.89842,28.95052
"900 BENTWOOD LN, Port Orange, FL",-81.00499,29.121014
"2200 INDIA PALM DR, Edgewater, FL",-80.900345,28.96205
"2900 INDIA PALM DR, Edgewater, FL",-80.89487,28.94959
"700 S PARK AV, Orange City, FL",-81.321655,28.93765
"1500 RIDGEWOOD AV, Holly Hill, FL",-81.04542,29.252542
"500 LPGA BLVD, Holly Hill, FL",-81.04877,29.242897
"100 N ATLANTIC AV, Daytona Beach, FL",-81.00897,29.228416
"2000 S RIDGEWOOD AV, South Daytona, FL",-81.00334,29.174065
"800 S RIDGEWOOD AV, Daytona Beach, FL",-81.03826,29.239365
"200 HAYNES ST, Daytona Beach, FL",-81.02996,29.205393
"1400 N HALIFAX AV, Daytona Beach, FL",-81.02727,29.249487
"100 HIGHLAND AV, Ormond Beach, FL",-81.05975,29.287624
"700 WASHINGTON ST, Daytona Beach, FL",-81.03533,29.221218
"1200 S RIDGEWOOD AV, Daytona Beach, FL",-81.0427,29.247532
"100 S BEACH ST, Daytona Beach, FL",-81.01934,29.212149
"800 CARSWELL AV, Holly Hill, FL",-81.04019,29.238714
"500 N NOVA RD, Ormond Beach, FL",-81.0873,29.292736
"3400 PEGASO AVE, New Smyrna Beach, FL",-81.0304,29.03027
"1200 WOODCREST DR, Daytona Beach, FL",-81.042656,29.17104
"100 HIGHLAND AV, Ormond Beach, FL",-81.05975,29.287624
"400 TURNBULL BAY RD, New Smyrna Beach, FL",-80.93652,29.040651
"2500 GUAVA DR, Edgewater, FL",-80.89647,28.957296
"400 RIDGEWOOD AV, Holly Hill, FL",-81.03467,29.23277
"600 VAUGHN RD, Port Orange, FL",-80.99515,29.090097
"600 S WOODLAND BLVD, DeLand, FL",-81.30316,29.019053
"3000 SILVER PALM DR, Edgewater, FL",-80.91129,28.940924
"500 FLAGLER AV, New Smyrna Beach, FL",-80.897,29.038567
"600 AMBROSE ST, DeLand, FL",-81.312645,29.015411
"500 N RIDGEWOOD AV, Daytona Beach, FL",-81.035446,29.234215
"1200 RIDGEWOOD AV, Holly Hill, FL",-81.0427,29.247532
"200 OAK TREE CIR, Daytona Beach, FL",-81.031715,29.183338
"1800 LPGA BLVD, Daytona Beach, FL",-81.07511,29.231876
"200 FRANCIS PARKMAN PL, Daytona Beach, FL",-81.01194,29.193062
"500 N RIDGEWOOD AV, Daytona Beach, FL",-81.035446,29.234215
"600 JIMMY ANN DR, Daytona Beach, FL",-81.06651,29.20486
"800 N ATLANTIC AV, Daytona Beach, FL",-81.014145,29.23905
"5600 TAYLOR AV, Port Orange, FL",-80.98282,29.117352
"1400 S CLYDE MORRIS BLVD, Daytona Beach, FL",-81.04118,29.174957
"1800 DUNLAWTON AV, Port Orange, FL",-81.02612,29.10945
"600 WILDER BLVD, Daytona Beach, FL",-81.01652,29.186493
"800 GATEPARK DR, Daytona Beach, FL",-81.03001,29.190119
"100 WEST FIESTA KEY LOOP, DeLand, FL",-81.33519,29.03375
"3800 RIDGEWOOD AV, Port Orange, FL",-80.98839,29.144943
"3100 SABAL PALM DR, Edgewater, FL",-80.90131,28.941103
"400 NANCY CIR, Port Orange, FL",-80.99195,29.144594
"1100 S RIDGEWOOD AV, Daytona Beach, FL",-81.04183,29.245941
"800 N FLORIDA AV, DeLand, FL",-81.30601,29.042006
"600 HAWK ST, Daytona Beach, FL",-81.02799,29.203035
"600 S KEECH ST, Daytona Beach, FL",-81.032,29.195316
"900 E CAROLINA AVE, DeLand, FL",-81.28608,29.025438
"400 E OAKDALE AVE, DeLand, FL",-81.2978,29.040594
"200 SUGAR MILL DR, New Smyrna Beach, FL",-80.97963,29.016033
"100 W GARDINER CT, Daytona Beach, FL",-81.01667,29.20399
"400 ALAMANDA ST, Daytona Beach, FL",-81.02848,29.200285
"1500 N ATLANTIC AV, Daytona Beach, FL",-81.02019,29.251638
"2400 S NOVA RD, South Daytona, FL",-81.02188,29.158033
"1800 S CLYDE MORRIS BLVD, Daytona Beach, FL",-81.038734,29.164026
"600 WILDER BLVD, Daytona Beach, FL",-81.01652,29.186493
"5400 FREDERICK LAKE DR, Port Orange, FL",-81.05399,29.096489
"300 W GRANADA BLVD, Ormond Beach, FL",-81.06402,29.282204
"300 W GRANADA BLVD, Ormond Beach, FL",-81.06402,29.282204
"300 W GRANADA BLVD, Ormond Beach, FL",-81.06402,29.282204
"500 S ATLANTIC AV, Ormond Beach, FL",-81.03363,29.279106
"300 DIVISION ST, Daytona Beach, FL",-81.02564,29.204504
"500 FAIRMOUNT RD, Daytona Beach, FL",-81.054405,29.207645
"900 N BEACH ST, Holly Hill, FL",-81.02682,29.228533
"300 PIERCE AV, Daytona Beach, FL",-81.03091,29.225504
"600 GREENLAWN ST, New Smyrna Beach, FL",-80.93759,29.028667
"400 BRYANT ST, Ormond Beach, FL",-81.07483,29.263712
"500 BRYANT ST, Ormond Beach, FL",-81.07378,29.261793
"300 TOMOKA AV, Ormond Beach, FL",-81.06393,29.280107
"1700 N NOVA RD, Holly Hill, FL",-81.06231,29.243193
"4600 SPRUCE CREEK RD, Port Orange, FL",-80.99301,29.126184
"1400 AQUARIUS AV, DeLand, FL",-81.296646,29.004383
"900 GEORGE W ENGRAM BLVD, Daytona Beach, FL",-81.04005,29.212639
"5400 S WILLIAMSON BLVD, Port Orange, FL",-81.03873,29.11067
"100 PONCE DE LEON DR, Ormond Beach, FL",-81.03543,29.271538
"700 N ATLANTIC AV, Daytona Beach, FL",-81.013336,29.237368
"500 STERTHAUS DR, Ormond Beach, FL",-81.075035,29.283377
"800 ORANGEWOOD AV, DeLand, FL",-81.28945,29.047392
"100 BONITA PL, Ormond Beach, FL",-81.085625,29.28097
"600 S YONGE ST, Ormond Beach, FL",-81.05437,29.268278
"4000 CLYDE MORRIS BLVD, Port Orange, FL",-81.03521,29.140509
"400 JOYCE ST, Edgewater, FL",-80.91129,28.984741
"200 TREE BRANCH LN, Edgewater, FL",-80.890625,28.959364
"1700 MASON AV, Daytona Beach, FL",-81.0674,29.211325
"200 INTERCHANGE BLVD, Ormond Beach, FL",-81.11816,29.254753
"1100 MEDITATION LOOP, Port Orange, FL",-81.01588,29.137733
"400 REED CANAL RD, South Daytona, FL",-80.9973,29.158648
"2200 MAGNOLIA AV, South Daytona, FL",-81.01474,29.162182
"400 BANANA CAY DR, South Daytona, FL",-80.997116,29.15898
"3200 NEEDLE PALM DR, Edgewater, FL",-80.89621,28.940908
"500 MULBERRY ST, Daytona Beach, FL",-81.02679,29.221869
"100 SETON TR, Ormond Beach, FL",-81.04313,29.287054
"600 S YONGE ST, Ormond Beach, FL",-81.05437,29.268278
"600 N ATLANTIC AV, Daytona Beach, FL",-81.01253,29.235699
"900 STONYBROOK CIR, Port Orange, FL",-80.99875,29.131004
"5200 ORANGE AV, Port Orange, FL",-80.98464,29.12478
"700 MILLBROOK LN, South Daytona, FL",-81.008804,29.161753
"500 ELDORADO ST, Daytona Beach, FL",-81.02553,29.207174
"400 NAUTILUS AV, Daytona Beach, FL",-81.02283,29.251503
"500 COMMONWEALTH BLVD, Port Orange, FL",-80.985756,29.124676
"600 BERKSHIRE RD, Daytona Beach, FL",-81.05527,29.21124
"800 GATEPARK DR, Daytona Beach, FL",-81.03001,29.190119
"600 N RIDGEWOOD AV, Daytona Beach, FL",-81.03648,29.23611
"4800 SPRUCE CREEK RD, Port Orange, FL",-80.992966,29.122591
"3800 CLYDE MORRIS BLVD, Port Orange, FL",-81.03526,29.142838
"3800 CLYDE MORRIS BLVD, Port Orange, FL",-81.03526,29.142838
"300 BILL FRANCE BLVD, Daytona Beach, FL",-81.06945,29.197918
"1800 DUNLAWTON AV, Port Orange, FL",-81.02612,29.10945
"1800 DUNLAWTON AV, Port Orange, FL",-81.02612,29.10945
"900 MAGNOLIA STREET, New Smyrna Beach, FL",-80.91886,29.017776
"1100 BEVILLE RD, Daytona Beach, FL",-81.02695,29.17603
"400 HUDSON ST, Daytona Beach, FL",-81.02818,29.202887
"100 S NOVA RD, Daytona Beach, FL",-81.04064,29.204712
"2300 QUEEN PALM DR, Edgewater, FL",-80.90668,28.957851
"700 VIRGINIA TER, Ormond Beach, FL",-81.07095,29.25679
"800 KOKOMO CIR, Port Orange, FL",-80.9955,29.13549
"2000 GREEN ST, South Daytona, FL",-81.01324,29.169502
"100 PORPOISE BAY RD, Daytona Beach, FL",-81.05366,29.164465
"900 S RIDGEWOOD AV, Daytona Beach, FL",-81.03912,29.24099
"5400 ROGERS AV, Port Orange, FL",-80.98136,29.121002
"300 ACACIA DR, Port Orange, FL",-80.97905,29.109684
"2100 NOTTINGHAM RD, South Daytona, FL",-81.00449,29.170036
"600 TOMOKA RD, Daytona Beach, FL",-81.04171,29.2167
"1900 S PALMETTO AV, South Daytona, FL",-81.00289,29.176975
"500 W INTL SPEEDWAY BLVD, Daytona Beach, FL",-81.0252,29.20986
"1300 N WOODLAND BLVD, DeLand, FL",-81.30428,29.051094
"2600 N ATLANTIC AV, Daytona Beach, FL",-81.02604,29.263042
"1700 KUMQUAT DR, Edgewater, FL",-80.90693,28.972166
"3800 NOVA RD, Port Orange, FL",-81.00641,29.129889
"2100 ORIOLE LN, South Daytona, FL",-81.011566,29.168941
"200 N RIDGEWOOD AV, Edgewater, FL",-80.9089,28.993496
"900 MADISON AV, Daytona Beach, FL",-81.04262,29.218214
"4600 CLYDE MORRIS BLVD, Port Orange, FL",-81.02584,29.129583
"2000 S RIDGEWOOD AV, South Daytona, FL",-81.00334,29.174065
"200 WASHINGTON ST, New Smyrna Beach, FL",-80.92421,29.027027
"700 AUDITORIUM BLVD, Daytona Beach, FL",-81.010086,29.227896
"200 BLANCHE PL, Daytona Beach, FL",-81.01224,29.193636
"1600 OLD DAYTONA ST, DeLand, FL",-81.293015,29.05732
"600 JESSAMINE BLVD, Daytona Beach, FL",-81.01578,29.240244
"200 GOODALL AV, Daytona Beach, FL",-81.01041,29.21916
"1600 N US HWY 1, Ormond Beach, FL",-81.13142,29.336
"400 N GRANDVIEW AV, Daytona Beach, FL",-81.012,29.23199
"700 SCHOOL ST, Daytona Beach, FL",-81.023155,29.196648
"1600 BIG TREE RD, Daytona Beach, FL",-81.040924,29.155998
"5400 ROGERS AV, Port Orange, FL",-80.98136,29.121002
"3000 SABAL PALM DR, Edgewater, FL",-80.90255,28.943897
"1000 SHADICK DR, Orange City, FL",-81.28617,28.938633
"800 S RIDGEWOOD AV, Daytona Beach, FL",-81.03826,29.239365
"200 E GRAVES AV, Orange City, FL",-81.2977,28.948627
"1100 HERBERT ST, Port Orange, FL",-81.01422,29.136553
"600 W PENNSYLVANIA AV, DeLand, FL",-81.314354,29.03898
"2600 N ATLANTIC AV, Daytona Beach, FL",-81.02604,29.263042
"100 GREGORY CIR, Port Orange, FL",-80.98038,29.114988
"3300 S ATLANTIC AV, New Smyrna Beach, FL",-80.88138,29.01234
"1200 KENNEDY RD, Daytona Beach, FL",-81.05323,29.226284
"700 N ATLANTIC AV, Daytona Beach, FL",-81.013336,29.237368
"600 N GRANDVIEW AV, Daytona Beach, FL",-81.01355,29.235325
"700 W INTL SPEEDWAY BLVD, Daytona Beach, FL",-81.031715,29.206764
"2800 LIME TREE DR, Edgewater, FL",-80.89842,28.95052
"2900 S RIDGEWOOD AV, South Daytona, FL",-80.99445,29.15676
"1500 BLUE GRASS BLVD, DeLand, FL",-81.28225,29.007828
"800 STONY POINT DR, Port Orange, FL",-81.02559,29.094538
"300 N BEACH ST, Daytona Beach, FL",-81.02169,29.217026
"100 N RIDGEWOOD AV, Edgewater, FL",-80.907974,28.99167
"100 PORPOISE BAY RD, Daytona Beach, FL",-81.05366,29.164465
"200 W PENNSYLVANIA AV, DeLand, FL",-81.30594,29.039053
"900 CRYSTAL LAKE DR, Port Orange, FL",-81.007515,29.11893
"100 N ATLANTIC AV, Daytona Beach, FL",-81.00897,29.228416
"2300 ORIOLE LN, South Daytona, FL",-81.008705,29.163687
"1900 KUMQUAT DR, Edgewater, FL",-80.90451,28.966692
"300 N LINCOLN ST, Daytona Beach, FL",-81.035095,29.214777
"900 MAPLE ST, New Smyrna Beach, FL",-80.894775,29.032076
"5800 SPRUCE CREEK RD, Port Orange, FL",-80.9933,29.10668
"100 N YONGE ST, Ormond Beach, FL",-81.06406,29.28635
"1600 RIVERSIDE DR, Holly Hill, FL",-81.04135,29.258032
"100 SALT LAKE CT, Daytona Beach, FL",-81.02683,29.194843
"4200 NEW HAVEN CT, Port Orange, FL",-80.99817,29.133877
"2400 W INTL SPEEDWAY BLVD, Daytona Beach, FL",-81.08165,29.177538
"400 W LANSDOWNE AV, Orange City, FL",-81.30313,28.95593
"500 S ATLANTIC AV, Ormond Beach, FL",-81.03363,29.279106
"900 S FLORIDA AV, DeLand, FL",-81.305046,29.01357
"2000 GUAVA DR, Edgewater, FL",-80.89972,28.965328
"1200 S RIVERSIDE DR, New Smyrna Beach, FL",-80.91632,29.01444
"500 ELM ST, Daytona Beach, FL",-81.02918,29.219807
"100 FAIRVIEW AV, Daytona Beach, FL",-81.02339,29.221153
"300 N RIDGEWOOD AV, Daytona Beach, FL",-81.03404,29.231602
"300 BOYLSTON AV, Daytona Beach, FL",-81.02764,29.259846
"700 WESTMORELAND RD, Daytona Beach, FL",-81.05362,29.214098
"2600 GLENWOOD AV, New Smyrna Beach, FL",-80.95226,29.063461
"1600 BIG TREE RD, Daytona Beach, FL",-81.040924,29.155998
"2800 INDIA PALM DR, Edgewater, FL",-80.895676,28.951445
"100 S OLD KINGS RD, Ormond Beach, FL",-81.07866,29.27577
"400 SEABREEZE BLVD, Daytona Beach, FL",-81.01571,29.234383
"200 KINGSTON AV, Daytona Beach, FL",-81.028915,29.225594
"400 BRENTWOOD DR, Daytona Beach, FL",-81.03594,29.227692
"100 OAKWOOD DR, Daytona Beach, FL",-81.05294,29.21743
"400 ANDALUSIA AV, Ormond Beach, FL",-81.05794,29.273125
"1500 DECATUR AV, Holly Hill, FL",-81.05289,29.249323
"700 MULBERRY ST, Daytona Beach, FL",-81.02803,29.22424
"700 ORCHARD AV, Ormond Beach, FL",-81.0588,29.262455
"400 BANANA CAY DR, South Daytona, FL",-80.997116,29.15898
"1000 OAK FOREST CIR, Port Orange, FL",-81.01145,29.133053
"100 S ATLANTIC AV, Daytona Beach, FL",-81.00733,29.22497
"900 HUNTERS CREEK DR, DeLand, FL",-81.32478,29.04431
"400 JEAN ST, Daytona Beach, FL",-81.03517,29.196348
"100 E NEW HAMPSHIRE AV, DeLand, FL",-81.30248,29.006275
"1600 ROYAL PALM DR, Edgewater, FL",-80.913826,28.971855
"400 N OLEANDER AV, Daytona Beach, FL",-81.0143,29.23116
"100 MORRIS RD, Daytona Beach, FL",-81.03397,29.18307
"400 N RIDGEWOOD AV, Edgewater, FL",-80.911995,28.999996
"400 N RIDGEWOOD AV, Edgewater, FL",-80.911995,28.999996
"500 EASTWOOD LN, Daytona Beach, FL",-81.00347,29.213953
"1000 N ATLANTIC AV, Daytona Beach, FL",-81.01582,29.242548
"400 S RIDGEWOOD AV, Daytona Beach, FL",-81.034676,29.232782
"200 E STETSON ST, DeLand, FL",-81.30256,29.041897
"800 VALENCIA AV, Daytona Beach, FL",-81.026665,29.191555
"2200 S RIDGEWOOD AV, Edgewater, FL",-80.89395,28.969341
"700 FENTRESS BLVD, Daytona Beach, FL",-81.08475,29.206797
"800 N RIDGEWOOD AV, Ormond Beach, FL",-81.06893,29.304365
"3000 INDIA PALM DR, Edgewater, FL",-80.89369,28.946905
"500 WASHINGTON ST, New Smyrna Beach, FL",-80.92818,29.025505
"100 HOWES ST, Port Orange, FL",-80.98523,29.127151
"5200 NOVA RD, Port Orange, FL",-80.985825,29.115221
"100 PORPOISE BAY RD, Daytona Beach, FL",-81.05366,29.164465
"2600 GLENWOOD AV, New Smyrna Beach, FL",-80.95226,29.063461
"5600 CHRISTIANCY AV, Port Orange, FL",-80.9805,29.117744
"4000 NOVA RD, Port Orange, FL",-81.00146,29.120985
"1000 CADILLAC DR, Daytona Beach, FL",-81.063835,29.220263
"2300 N OLEANDER AV, Daytona Beach, FL",-81.0276,29.259068
"400 S SEGRAVE ST, Daytona Beach, FL",-81.02104,29.204403
"300 S HOLLY AV, Orange City, FL",-81.29783,28.946457
"100 N BEACH ST, Daytona Beach, FL",-81.01939,29.212236
"1500 OLD DAYTONA RD, DeLand, FL",-81.29378,29.057384
"600 N HALIFAX AV, Daytona Beach, FL",-81.018166,29.23366
"300 S BRIGHTON DR, Port Orange, FL",-80.99434,29.09994
"900 OLD TOMOKA RD, Ormond Beach, FL",-81.08995,29.276836
"5400 ORANGE AV, Port Orange, FL",-80.98461,29.121069
"200 PALM CASTLE DR, Port Orange, FL",-80.99454,29.116093
"100 S CHANDLER AV, DeLand, FL",-81.28784,29.027863
"5400 ORANGE AV, Port Orange, FL",-80.98461,29.121069
"700 ALABAMA ST, Daytona Beach, FL",-81.061806,29.210255
"1300 S RIDGEWOOD AV, Edgewater, FL",-80.90058,28.979914
"100 FOREST LAKE BLVD, Daytona Beach, FL",-81.04543,29.167368
"2700 SPARTA DR, New Smyrna Beach, FL",-80.9827,29.024338
"800 VALENCIA AV, Daytona Beach, FL",-81.026665,29.191555
"400 TOMOKA AV, Ormond Beach, FL",-81.06624,29.279127
"400 RIVERVIEW BLVD, Daytona Beach, FL",-81.017265,29.237751
"1700 MAGNOLIA AV, South Daytona, FL",-81.021255,29.17371
"400 TOMOKA AV, Ormond Beach, FL",-81.06624,29.279127
"400 PLEASANT ST, Daytona Beach, FL",-81.03372,29.215277
"400 BASIN ST, Daytona Beach, FL",-81.01145,29.205683
"500 LAMBRIGHT RD, South Daytona, FL",-81.006676,29.170818
"1800 SR 44, New Smyrna Beach, FL",-80.94232,29.01441
"100 W BERESFORD AV, DeLand, FL",-81.30317,29.01377
"2300 SR 44, New Smyrna Beach, FL",-80.96003,29.013283
"1800 S RIDGEWOOD AV, Edgewater, FL",-80.89646,28.973457
"1000 MASON AV, Daytona Beach, FL",-81.04741,29.219719
"2200 KUMQUAT DR, Edgewater, FL",-80.9022,28.961409
"100 E PARK AV, Edgewater, FL",-80.90784,28.991627
"100 SHOAL CREEK CIR, Daytona Beach, FL",-81.088776,29.191137
"100 KINGSTON AV, Daytona Beach, FL",-81.026,29.226768
"900 LEWIS DR, Daytona Beach, FL",-81.05853,29.218351
"300 MILITARY BLVD, Ormond Beach, FL",-81.08682,29.270668
"5200 ORANGE AV, Port Orange, FL",-80.98464,29.12478
"0 S YONGE ST, Ormond Beach, FL",-81.06201,29.282885
"400 FLEMING AV, Ormond Beach, FL",-81.059975,29.266216
"1500 S WOODLAND BLVD, DeLand, FL",-81.30442,29.055216
"800 W BERESFORD AV, DeLand, FL",-81.319695,29.013529
"500 SEABREEZE BLVD, Daytona Beach, FL",-81.01445,29.234837
"900 ROPER ST, New Smyrna Beach, FL",-80.93569,29.0289
"100 S NOVA RD, Ormond Beach, FL",-81.08289,29.277311
"2900 INDIA PALM DR, Edgewater, FL",-80.89487,28.94959
"300 W GRANADA BLVD, Ormond Beach, FL",-81.06402,29.282204
"700 EARL ST, Daytona Beach, FL",-81.01077,29.229479
"1200 16TH ST, Edgewater, FL",-80.908264,28.972643
"1200 16TH ST, Edgewater, FL",-80.908264,28.972643
"1600 N US HWY 1, Ormond Beach, FL",-81.13142,29.336
"1600 N US HWY 1, Ormond Beach, FL",-81.13142,29.336
"100 ORMOND SHORES DR, Ormond Beach, FL",-81.03872,29.275688
"1000 OAK TREE LN, DeLand, FL",-81.320465,29.012127
"500 SEABREEZE BLVD, Daytona Beach, FL",-81.01445,29.234837
"100 TREASURE LN, Ormond Beach, FL",-81.04765,29.296679
"2000 JUNIPER DR, Edgewater, FL",-80.90286,28.965254
"400 E INTL SPEEDWAY BLVD, Daytona Beach, FL",-81.02422,29.210258
"200 CARDINAL DR, Ormond Beach, FL",-81.034645,29.274057
"400 S JULIA AV, DeLand, FL",-81.31244,29.022015
"700 DERBYSHIRE RD, Daytona Beach, FL",-81.054474,29.213757
"500 S RIDGEWOOD AV, Ormond Beach, FL",-81.05247,29.27191
"500 S KENTUCKY AV, DeLand, FL",-81.29286,29.021505
"1400 S DIXIE FREEWAY, New Smyrna Beach, FL",-80.93682,29.04917
"100 DOMICILIO AV, Ormond Beach, FL",-81.069725,29.306726
"300 BEVILLE RD, South Daytona, FL",-81.009964,29.183208
"100 DUNLAWTON AV, Port Orange, FL",-80.98582,29.143452
"100 ARTHUR AV, Edgewater, FL",-80.886696,28.955227
"200 S GRANDVIEW AV, Daytona Beach, FL",-81.00773,29.222603
"300 N LINCOLN ST, Daytona Beach, FL",-81.035095,29.214777
"1800 N CLYDE MORRIS BLVD, Daytona Beach, FL",-81.09194,29.239481
"900 VILLAGE TR, Port Orange, FL",-81.0036,29.124659
"1000 SAXON BLVD, Orange City, FL",-81.28506,28.911243
"1000 DUNLAWTON AV, Port Orange, FL",-81.00523,29.127396
"400 SEABREEZE BLVD, Daytona Beach, FL",-81.01571,29.234383
"700 BEVILLE RD, South Daytona, FL",-81.018234,29.179605
"700 W PLYMOUTH AVE, DeLand, FL",-81.31644,29.042604
"1500 W GRANADA BLVD, Ormond Beach, FL",-81.113556,29.257517
"400 S HOLLY AV, Orange City, FL",-81.29781,28.945114
"700 E RHODE ISLAND AV, Orange City, FL",-81.28994,28.93407
"100 N CAUSEWAY, New Smyrna Beach, FL",-80.94782,29.067661
"4700 CLYDE MORRIS BLVD, Port Orange, FL",-81.024666,29.123243
"1500 W GRANADA BLVD, Ormond Beach, FL",-81.113556,29.257517
"4600 CLYDE MORRIS BLVD, Port Orange, FL",-81.02584,29.129583
"1200 W INTL SPEEDWAY BLVD, Daytona Beach, FL",-81.052155,29.198473
"2200 S VOLUSIA AV, Orange City, FL",-81.29887,28.92499
"100 N OLD COUNTY RD, Edgewater, FL",-80.91113,28.990713
"300 N ATLANTIC AV, Daytona Beach, FL",-81.0105,29.231506
"1500 S RIDGEWOOD AV, South Daytona, FL",-81.04542,29.252542
"1500 CENTER AV, Holly Hill, FL",-81.05391,29.249044
"1700 DUNLAWTON AVE, Port Orange, FL",-81.02574,29.110687
"1800 SEGRAVE ST, South Daytona, FL",-81.00837,29.17761
"4600 CLYDE MORRIS BLVD, Port Orange, FL",-81.02584,29.129583
"300 COUNTRY CLUB OVAL, Daytona Beach, FL",-81.01185,29.190208
"1300 SAXON BLVD, Orange City, FL",-81.27574,28.911146
"900 S VOLUSIA AV, Orange City, FL",-81.298874,28.939625
"500 S KEECH ST, Daytona Beach, FL",-81.033005,29.197212
"900 W PARK AV, Edgewater, FL",-80.9209,28.986816
"800 RIDGEWOOD AV, Holly Hill, FL",-81.03826,29.239365
"1500 W GRANADA BLVD, Ormond Beach, FL",-81.113556,29.257517
"100 W PARK AVE, Edgewater, FL",-80.90801,28.99156
"300 N SENECA ST, Daytona Beach, FL",-81.04613,29.205408
"300 E BLUE SPRINGS AV, Orange City, FL",-81.29627,28.943127
"400 PALMETTO ST, New Smyrna Beach, FL",-80.92311,29.02158
"700 S RIDGEWOOD AV, Daytona Beach, FL",-81.0373,29.237602
"100 E MICHIGAN AVENUE, DeLand, FL",-81.303276,29.03349
"700 N FRANKFORT AV, DeLand, FL",-81.29241,29.039536
"1500 N NOVA RD, Holly Hill, FL",-81.05897,29.240595
"900 N ATLANTIC AV, Daytona Beach, FL",-81.014946,29.240704
"600 SEABREEZE BLVD, Daytona Beach, FL",-81.01341,29.235214
"500 S ATLANTIC AV, Ormond Beach, FL",-81.03363,29.279106
"1800 S RIDGEWOOD AV, Edgewater, FL",-80.89646,28.973457
"100 E PARK AV, Edgewater, FL",-80.90784,28.991627
"300 BELLEVUE AV, Daytona Beach, FL",-81.01583,29.197367
"1000 MASON AV, Daytona Beach, FL",-81.04741,29.219719
"700 CHARLES ST, Port Orange, FL",-80.995804,29.146288
"0 S YONGE ST, Ormond Beach, FL",-81.06201,29.282885
"4500 CLYDE MORRIS BLVD, Port Orange, FL",-81.03151,29.135624
"400 10TH ST, Holly Hill, FL",-81.04366,29.240957
"1800 RIDGEWOOD AV, Holly Hill, FL",-81.04957,29.26044
"1200 W GRANADA BLVD, Ormond Beach, FL",-81.10186,29.26738
"500 LENOX AV, Daytona Beach, FL",-81.00549,29.216448
"100 S BEACH ST, Daytona Beach, FL",-81.01934,29.212149
"1600 N WOODLAND BLVD, DeLand, FL",-81.304565,29.060051
"200 BILL FRANCE BLVD, Daytona Beach, FL",-81.06788,29.194857
"2000 LPGA BLVD, Daytona Beach, FL",-81.09409,29.223927
"100 DUNLAWTON BLVD, Port Orange, FL",-80.96903,29.151161
"700 STATE AV, Holly Hill, FL",-81.03846,29.237123
"800 UPPER CAPE RD, Orange City, FL",-81.29175,28.91699
"2000 S RIDGEWOOD AV, Edgewater, FL",-80.89413,28.96968
"600 S RIDGEWOOD AV, Daytona Beach, FL",-81.03648,29.23611
"5100 ORANGE AV, Port Orange, FL",-80.98466,29.126211
"4500 CLYDE MORRIS BLVD, Port Orange, FL",-81.03151,29.135624
"4500 CLYDE MORRIS BLVD, Port Orange, FL",-81.03151,29.135624
"400 S VOLUSIA AV, Orange City, FL",-81.29886,28.946806
"800 BEVILLE RD, South Daytona, FL",-81.021866,29.178167
"1300 N ATLANTIC AV, Daytona Beach, FL",-81.01851,29.248138
"200 S RIVERSIDE DR, New Smyrna Beach, FL",-80.92059,29.024607
"700 CHARLES ST, Port Orange, FL",-80.995804,29.146288
"200 S BOSTON AVE, DeLand, FL",-81.29093,29.02614
"700 CHARLES ST, Port Orange, FL",-80.995804,29.146288
"800 S ATLANTIC AV, New Smyrna Beach, FL",-80.89391,29.033539
"600 N RIDGEWOOD AV, Daytona Beach, FL",-81.03648,29.23611
"1900 S RIDGEWOOD AV, South Daytona, FL",-81.00439,29.175978
"1900 S WOODLAND BLVD, DeLand, FL",-81.30464,29.063753
"500 N NOVA RD, Ormond Beach, FL",-81.0873,29.292736
"200 TURNBULL BAY RD, New Smyrna Beach, FL",-80.934906,29.041286
"2800 INDIA PALM DR, Edgewater, FL",-80.895676,28.951445
"200 N RIDGEWOOD AV, Daytona Beach, FL",-81.03271,29.229166
"700 CARSWELL AV, Holly Hill, FL",-81.0392,29.236816
"900 N DIXIE FREEWAY, New Smyrna Beach, FL",-80.93288,29.03832
"100 N ATLANTIC AV, Daytona Beach, FL",-81.00897,29.228416
"300 BEVILLE RD, South Daytona, FL",-81.009964,29.183208
"1500 DUNLAWTON AV, Port Orange, FL",-81.0241,29.115534
"1000 N WOODLAND BLVD, DeLand, FL",-81.30409,29.044664
"800 RIDGEWOOD AV, Holly Hill, FL",-81.03826,29.239365
"700 S NOVA RD, Ormond Beach, FL",-81.076706,29.262924
"1800 S WOODLAND BLVD, DeLand, FL",-81.30459,29.061243
"2000 S RIDGEWOOD AV, South Daytona, FL",-81.00334,29.174065
"900 S FLORIDA AVE, DeLand, FL",-81.305046,29.01357
"4500 CLYDE MORRIS BLVD, Port Orange, FL",-81.03151,29.135624
"3700 NOVA RD, Port Orange, FL",-81.00924,29.134981
"2600 PIONEER TR, New Smyrna Beach, FL",-80.980156,29.030403
"900 REED CANAL RD, South Daytona, FL",-81.01403,29.156801
"900 BIG TREE RD, South Daytona, FL",-81.018265,29.168432
"800 HARLEY STRICKLAND BLVD, Orange City, FL",-81.29035,28.917372
"800 WHITE CT, Daytona Beach, FL",-81.054146,29.217655
"1200 S BEACH ST, Daytona Beach, FL",-81.00949,29.191027
"300 ORANGE BLOSSOM DR, South Daytona, FL",-81.00789,29.182251
"300 N CLYDE MORRIS BLVD, Daytona Beach, FL",-81.0565,29.202839
"400 N ATLANTIC AV, Daytona Beach, FL",-81.01117,29.232887
"100 S RIDGEWOOD AV, Daytona Beach, FL",-81.03168,29.227274
"200 W CARTER ST, DeLand, FL",-81.305115,29.012651
"1900 S PALMETTO AV, South Daytona, FL",-81.00289,29.176975
"400 LESLIE DR, Port Orange, FL",-80.992805,29.109793
"900 W OHIO AV, Orange City, FL",-81.30723,28.939512
"400 N OLEANDER AV, Daytona Beach, FL",-81.0143,29.23116
"300 N RIDGEWOOD AV, Daytona Beach, FL",-81.03404,29.231602
"4000 NOVA RD, Port Orange, FL",-81.00146,29.120985
"800 GATEPARK DR, Daytona Beach, FL",-81.03001,29.190119
"1100 RIVERSIDE DR, Holly Hill, FL",-81.03714,29.247892
"700 W PLYMOUTH AVE, DeLand, FL",-81.31644,29.042604
"100 RIDGEWOOD AV, Holly Hill, FL",-81.03167,29.227262
"900 WILLOW RUN, Ormond Beach, FL",-81.08122,29.273045
"1000 DUNLAWTON AV, Port Orange, FL",-81.00523,29.127396
"1600 N WOODLAND BLVD, DeLand, FL",-81.304565,29.060051
"2000 MANGO TREE DR, Edgewater, FL",-80.90549,28.964329
"200 BILL FRANCE BLVD, Daytona Beach, FL",-81.06788,29.194857
"800 S RIDGEWOOD AV, Edgewater, FL",-80.90367,28.984911
"100 S ATLANTIC AV, Daytona Beach, FL",-81.00733,29.22497
"1500 STATE AV, Holly Hill, FL",-81.04689,29.25192
"1700 W INTL SPEEDWAY BLVD, Daytona Beach, FL",-81.06329,29.194391
"1200 W INTL SPEEDWAY BLVD, Daytona Beach, FL",-81.052155,29.198473
"1000 BRENTWOOD DR, Daytona Beach, FL",-81.05234,29.220808
"1500 W GRANADA BLVD, Ormond Beach, FL",-81.113556,29.257517
"1700 W INTL SPEEDWAY BLVD, Daytona Beach, FL",-81.06329,29.194391
"1500 S RIDGEWOOD AV, Daytona Beach, FL",-81.04542,29.252542
"2200 ANASTASIA DR, South Daytona, FL",-81.005516,29.1683
"1500 S ATLANTIC AV, Daytona Beach, FL",-80.99937,29.208815
"1000 SAXON BLVD, Orange City, FL",-81.28506,28.911243
"300 N ATLANTIC AV, Daytona Beach, FL",-81.0105,29.231506
"1900 S WOODLAND BLVD, DeLand, FL",-81.30464,29.063753
"2100 W INTL SPEEDWAY BLVD, Daytona Beach, FL",-81.076515,29.18728
"1600 N US HWY 1, Ormond Beach, FL",-81.13142,29.336
"1800 N CLYDE MORRIS BLVD, Daytona Beach, FL",-81.09194,29.239481
"3600 CLYDE MORRIS BLVD, Port Orange, FL",-81.03518,29.146614
"1700 S NOVA RD, South Daytona, FL",-81.02717,29.172491
"200 W CHELSEA ST, DeLand, FL",-81.305275,29.014631
"600 JIMMY ANN DR, Daytona Beach, FL",-81.06651,29.20486
"4500 CLYDE MORRIS BLVD, Port Orange, FL",-81.03151,29.135624
"1100 DUNLAWTON AV, Port Orange, FL",-81.00985,29.124733
"1000 DUNLAWTON AV, Port Orange, FL",-81.00523,29.127396
"1500 CORNERSTONE BLVD, Daytona Beach, FL",-81.09293,29.220568
"100 N RIDGEWOOD AV, Daytona Beach, FL",-81.03168,29.227274
"4500 CLYDE MORRIS BLVD, Port Orange, FL",-81.03151,29.135624
"800 N RIDGEWOOD AV, Daytona Beach, FL",-81.03826,29.239365
"500 N ATLANTIC AV, Daytona Beach, FL",-81.011734,29.234045
"1900 S PALMETTO AV, South Daytona, FL",-81.00289,29.176975
"500 N RIDGEWOOD AV, Daytona Beach, FL",-81.035446,29.234215
"200 S KEECH ST, Daytona Beach, FL",-81.036026,29.202896
"3800 NOVA RD, Port Orange, FL",-81.00641,29.129889
"600 N ATLANTIC AV, Daytona Beach, FL",-81.01253,29.235699
"0 S YONGE ST, Ormond Beach, FL",-81.06201,29.282885
"4500 CLYDE MORRIS BLVD, Port Orange, FL",-81.03151,29.135624
"100 S BEACH ST, Ormond Beach, FL",-81.05435,29.283033
"5600 WOOD ST, Port Orange, FL",-80.98712,29.117311
"1000 S FLAGLER AV, Edgewater, FL",-80.90895,28.979643
"400 HARVEY AV, Daytona Beach, FL",-81.010994,29.22381
"300 S ORANGE AV, Orange City, FL",-81.328896,28.944843
"600 N ATLANTIC AV, Daytona Beach, FL",-81.01253,29.235699
"400 S RIDGEWOOD AV, Edgewater, FL",-80.90594,28.988342
"1900 N VOLUSIA AV, Orange City, FL",-81.298645,28.966133
"5800 RIDGEWOOD AV, Port Orange, FL",-80.97336,29.110004
"1000 DUNLAWTON AV, Port Orange, FL",-81.00523,29.127396
"300 S HILL AVE, DeLand, FL",-81.28262,29.024479
"600 RIBAULT AV, Daytona Beach, FL",-81.00373,29.214931
"100 DAYTONA AV, Holly Hill, FL",-81.029434,29.22787
"300 MADISON AV, Daytona Beach, FL",-81.02975,29.22339
"1800 S RIDGEWOOD AV, South Daytona, FL",-81.00642,29.179768
"4100 RIDGEWOOD AV, Port Orange, FL",-80.986496,29.14151
"1000 N ATLANTIC AV, Daytona Beach, FL",-81.01582,29.242548
"1300 S RIDGEWOOD AV, Daytona Beach, FL",-81.04362,29.24923
"1900 S PALMETTO AV, South Daytona, FL",-81.00289,29.176975
"100 N ATLANTIC AV, Daytona Beach, FL",-81.00897,29.228416
"800 N CLAKE ST, DeLand, FL",-81.302765,29.040977
"1200 S RIDGEWOOD AV, Daytona Beach, FL",-81.0427,29.247532
"200 MANHATTAN WAY, Port Orange, FL",-81.02005,29.13881
"400 N ATLANTIC AV, Daytona Beach, FL",-81.01117,29.232887
"2600 N DIXIE FREEWAY, New Smyrna Beach, FL",-80.946594,29.06603
"2500 N VOLUSIA AV, Orange City, FL",-81.298676,28.96851
"3700 NOVA RD, Port Orange, FL",-81.00924,29.134981
"200 BAY ST, Daytona Beach, FL",-81.02304,29.213034
"400 N RIDGEWOOD AV, Daytona Beach, FL",-81.034676,29.232782
"1200 N STONE ST, DeLand, FL",-81.316536,29.04954
"200 N STONE ST, DeLand, FL",-81.31599,29.02996
"800 LEWIS DR, Daytona Beach, FL",-81.05713,29.215845
"100 N RIDGEWOOD AV, Daytona Beach, FL",-81.03168,29.227274
"400 PALMETTO ST, New Smyrna Beach, FL",-80.92311,29.02158
"700 BIG TREE RD, South Daytona, FL",-81.01093,29.171299
"500 RAILWAY ST, Daytona Beach, FL",-81.030334,29.21925
"1700 W INTL SPEEDWAY BLVD, Daytona Beach, FL",-81.06329,29.194391
"600 N VOLUSIA AV, Orange City, FL",-81.29886,28.95415
"1600 S VOLUSIA AV, Orange City, FL",-81.2989,28.932323
"300 E BLUE SPRINGS AV, Orange City, FL",-81.29627,28.943127
"3100 S RIDGEWOOD AV, Edgewater, FL",-80.88361,28.946463
"100 POWELL BLVD, Daytona Beach, FL",-81.08687,29.197094
"100 CARSWELL AV, Holly Hill, FL",-81.033554,29.227076
"600 N RIDGEWOOD AV, Daytona Beach, FL",-81.03648,29.23611
"1900 S PALMETTO AV, South Daytona, FL",-81.00289,29.176975
"100 N ATLANTIC AV, New Smyrna Beach, FL",-80.89704,29.038633
"1000 SAXON BLVD, Orange City, FL",-81.28506,28.911243
"1600 DUNLAWTON AV, Port Orange, FL",-81.02535,29.111927
"1500 DUNLAWTON AV, Port Orange, FL",-81.0241,29.115534
"200 S BEACH ST, Daytona Beach, FL",-81.01837,29.210295
"200 RIDGEWOOD AV, Holly Hill, FL",-81.03271,29.229166
"100 S BEACH ST, Ormond Beach, FL",-81.05435,29.283033
"900 S ATLANTIC AV, Daytona Beach, FL",-81.00249,29.214882
"100 S OLD KINGS RD, Ormond Beach, FL",-81.07866,29.27577
"400 JEAN ST, Daytona Beach, FL",-81.03517,29.196348
"4500 CLYDE MORRIS BLVD, Port Orange, FL",-81.03151,29.135624
"1700 W INTL SPEEDWAY BLVD, Daytona Beach, FL",-81.06329,29.194391
"400 S VOLUSIA AV, Orange City, FL",-81.29886,28.946806
"700 N ATLANTIC AV, Daytona Beach, FL",-81.013336,29.237368
"1300 ROYAL PALM DR, Edgewater, FL",-80.91621,28.977264
"1600 TAYLOR RD, Port Orange, FL",-81.03761,29.102337
"400 ARROYO PKWY, Ormond Beach, FL",-81.05719,29.263378
"3000 PIONEER TR, New Smyrna Beach, FL",-80.99814,29.039417
"3800 NOVA RD, Port Orange, FL",-81.00641,29.129889
"500 N DIXIE FREEWAY, New Smyrna Beach, FL",-80.92834,29.028036
"800 S PALMETTO AV, Daytona Beach, FL",-81.01445,29.197744
"1700 SR 44, New Smyrna Beach, FL",-80.94205,29.01453
"3700 CLYDE MORRIS BLVD, Port Orange, FL",-81.035225,29.144577
"200 S WOODLAND BLVD, DeLand, FL",-81.30337,29.02612
"700 S RIDGEWOOD AV, Daytona Beach, FL",-81.0373,29.237602
"1000 S PALMETTO AV, Daytona Beach, FL",-81.01246,29.194187
"3600 NOVA RD, Port Orange, FL",-81.01081,29.137594
"500 EATON RD, Edgewater, FL",-80.90072,28.974276
"2000 S PALMETTO AV, South Daytona, FL",-81.001366,29.174189
"100 RIDGEWOOD AV, Holly Hill, FL",-81.03167,29.227262
"400 S VOLUSIA AV, Orange City, FL",-81.29886,28.946806
"2500 ENTERPRISE RD, Orange City, FL",-81.29627,28.919147
"600 N RIDGEWOOD AV, Daytona Beach, FL",-81.03648,29.23611
"5200 NOVA RD, Port Orange, FL",-80.985825,29.115221
"100 W GEORGIA AV, DeLand, FL",-81.303566,29.027184
"800 REGATTA BAY DR, Orange City, FL",-81.286026,28.904696
"300 S MARTIN LUTHER KING BLVD, Daytona Beach, FL",-81.02638,29.204548
"100 W MARION AV, Edgewater, FL",-80.89834,28.977985
"200 S ATLANTIC AV, Daytona Beach, FL",-81.006195,29.222765
"600 3RD AV, New Smyrna Beach, FL",-80.89849,29.02874
"500 FLAGLER AV, New Smyrna Beach, FL",-80.897,29.038567
"1700 N VOLUSIA AVE, Orange City, FL",-81.29889,28.931944
"700 W GRANADA BLVD, Ormond Beach, FL",-81.07605,29.278675
"600 TARRAGONA WAY, Daytona Beach, FL",-81.0414,29.191702
"300 LANE ST, Daytona Beach, FL",-81.035675,29.209686
"2300 KUMQUAT DR, Edgewater, FL",-80.90142,28.959646
"100 S RIDGEWOOD AV, Daytona Beach, FL",-81.03168,29.227274
"4500 CLYDE MORRIS BLVD, Port Orange, FL",-81.03151,29.135624
"4500 CLYDE MORRIS BLVD, Port Orange, FL",-81.03151,29.135624
"1000 DUNLAWTON AV, Port Orange, FL",-81.00523,29.127396
"900 S FLORIDA AV, DeLand, FL",-81.305046,29.01357
"1800 N CLYDE MORRIS BLVD, Daytona Beach, FL",-81.09194,29.239481
"100 HOWES ST, Port Orange, FL",-80.98523,29.127151
"3500 NOVA RD, Port Orange, FL",-81.01268,29.140965
"800 N SPRING GARDEN AV, DeLand, FL",-81.32453,29.038734
"500 S ATLANTIC AV, Ormond Beach, FL",-81.03363,29.279106
"1000 S RIDGEWOOD AV, Daytona Beach, FL",-81.0401,29.242744
"4000 HALIFAX DR, Port Orange, FL",-80.98562,29.143335
"400 N NOVA RD, Daytona Beach, FL",-81.04397,29.211075
"500 S MARTIN LUTHER KING BLVD, Daytona Beach, FL",-81.024414,29.200855
"1600 3RD ST, Daytona Beach, FL",-81.06599,29.21998
"1800 S RIDGEWOOD AV, South Daytona, FL",-81.00642,29.179768
"5200 RIDGEWOOD AV, Port Orange, FL",-80.97837,29.124994
"400 N LINCOLN ST, Daytona Beach, FL",-81.035446,29.215464
"800 SAXON BLVD, Orange City, FL",-81.291756,28.911217
"500 S RIDGEWOOD AV, Daytona Beach, FL",-81.035446,29.234215
"1900 S NOVA RD, South Daytona, FL",-81.02364,29.165817
"3600 JACKSON ST, Port Orange, FL",-81.00912,29.13928
"1500 S NOVA RD, South Daytona, FL",-81.02897,29.177477
"1000 ORANGE AV, Daytona Beach, FL",-81.03832,29.199755
"200 W HOWRY AV, DeLand, FL",-81.30557,29.026274
"3500 NOVA RD, Port Orange, FL",-81.01268,29.140965
"2000 S RIDGEWOOD AV, South Daytona, FL",-81.00334,29.174065
"1200 BEVILLE RD, Daytona Beach, FL",-81.03186,29.174038
"2800 E NEW YORK AVE, DeLand, FL",-81.366135,29.01131
"100 HEWEN PL, Daytona Beach, FL",-81.013145,29.22029
"1600 DUNN AV, Daytona Beach, FL",-81.0618,29.204676
"3600 NOVA RD, Port Orange, FL",-81.01081,29.137594
"900 VILLAGE TR, Port Orange, FL",-81.0036,29.124659
"900 VILLAGE TR, Port Orange, FL",-81.0036,29.124659
"1000 N ATLANTIC AV, Daytona Beach, FL",-81.01582,29.242548
"1000 N ATLANTIC AV, Daytona Beach, FL",-81.01582,29.242548
"800 JIMMY ANN DR, Daytona Beach, FL",-81.069336,29.21093
"0 S OCEAN AV, Daytona Beach, FL",-81.011,29.232729
"400 S HOLLY AV, Orange City, FL",-81.29781,28.945114
"900 GARDENIA DR, Daytona Beach, FL",-81.03824,29.223646
"4500 CLYDE MORRIS BLVD, Port Orange, FL",-81.03151,29.135624
"300 S VOLUSIA AV, Orange City, FL",-81.29886,28.947517
"800 N HILL AV, DeLand, FL",-81.28252,29.016836
"600 S PALMETTO AV, Daytona Beach, FL",-81.01654,29.20166
"5200 TAYLOR AVENUE, Port Orange, FL",-80.983,29.124365
"1000 SAXON BLVD, Orange City, FL",-81.28506,28.911243
"3100 SR 44, New Smyrna Beach, FL",-81.004875,29.012335
"1500 S NOVA RD, Daytona Beach, FL",-81.02897,29.177477
"500 S FLAGLER AV, Edgewater, FL",-80.91103,28.985504
"700 W RICH AV, DeLand, FL",-81.31615,29.029808
"400 BANANA CAY DR, South Daytona, FL",-80.997116,29.15898
"800 W WISCONSIN AV, DeLand, FL",-81.31818,29.031607
"600 S NOVA RD, Ormond Beach, FL",-81.07852,29.266218
"900 CANALVIEW BOULEVARD, Port Orange, FL",-81.00409,29.138588
"700 S NOVA RD, Daytona Beach, FL",-81.03361,29.19225
"400 N BEACH ST, Ormond Beach, FL",-81.060425,29.296097
"1000 DUNLAWTON AV, Port Orange, FL",-81.00523,29.127396
"3800 NOVA ROAD B1, Port Orange, FL",-81.00641,29.129889
"600 CEDAR ST, Daytona Beach, FL",-81.0235,29.198975
"1000 DUNLAWTON AV, Port Orange, FL",-81.00523,29.127396
"2400 S RIDGEWOOD AV, South Daytona, FL",-80.99969,29.167402
"1900 S RIDGEWOOD AV, South Daytona, FL",-81.00439,29.175978
"4000 HALIFAX DR, Port Orange, FL",-80.98562,29.143335
"2600 CORBY DR, Orange City, FL",-81.297874,28.91357
"500 HEATHER LN, Orange City, FL",-81.30619,28.952608
"100 N RIDGEWOOD AV, Daytona Beach, FL",-81.03168,29.227274
"1500 W GRANADA BLVD, Ormond Beach, FL",-81.113556,29.257517
"200 S FRANKFORT AV, DeLand, FL",-81.29196,29.026134
"2500 ENTERPRISE RD, Orange City, FL",-81.29627,28.919147
"400 S HOLLY AV, Orange City, FL",-81.29781,28.945114
"2400 ENTERPRISE RD, Orange City, FL",-81.298256,28.922174
"3500 NOVA RD, Port Orange, FL",-81.01268,29.140965
"600 GREENLAWN ST, New Smyrna Beach, FL",-80.93759,29.028667
"700 DOVE AVE, Port Orange, FL",-81.023796,29.14248
"1500 DUNLAWTON AVENUE, Port Orange, FL",-81.0241,29.115534
"2000 S PENINSULA DR, Daytona Beach, FL",-81.00087,29.203176
"3500 NOVA RD, Port Orange, FL",-81.01268,29.140965
"1800 S RIDGEWOOD AV, Edgewater, FL",-80.89646,28.973457
"3900 HALIFAX DR, Port Orange, FL",-80.98629,29.14466
"1800 S RIDGEWOOD AV, South Daytona, FL",-81.00642,29.179768
"500 S ATLANTIC AV, Ormond Beach, FL",-81.03363,29.279106
"800 E RICH AVE, DeLand, FL",-81.2883,29.030058
"700 N ATLANTIC AV, Daytona Beach, FL",-81.013336,29.237368
"700 N ATLANTIC AV, Daytona Beach, FL",-81.013336,29.237368
"100 W GEORGIA AVE, DeLand, FL",-81.303566,29.027184
"1000 S VOLUSIA AV, Orange City, FL",-81.29888,28.938202
"500 OCEAN SHORE BLVD, Ormond Beach, FL",-81.04588,29.303923
"100 E ORANGE AV, Daytona Beach, FL",-81.01766,29.208311
"1000 CONTINENTAL DR, Daytona Beach, FL",-81.06304,29.220274
"2400 ENTERPRISE RD, Orange City, FL",-81.298256,28.922174
"100 S RIDGEWOOD AV, Daytona Beach, FL",-81.03168,29.227274
"1500 S NOVA RD, Daytona Beach, FL",-81.02897,29.177477
"100 ALEXANDRIA CIR, DeLand, FL",-81.29146,29.017324
"500 COMMONWEALTH BL, Port Orange, FL",-80.985756,29.124676
"1000 MASON AV, Daytona Beach, FL",-81.04741,29.219719
"700 N ATLANTIC AV, Daytona Beach, FL",-81.013336,29.237368
"100 WILLIAMSON BLVD, Ormond Beach, FL",-81.113144,29.25603
"2500 ENTERPRISE RD, Orange City, FL",-81.29627,28.919147
"900 S WOODLAND BLVD, DeLand, FL",-81.30296,29.013664
"900 S FLORIDA AVE, DeLand, FL",-81.305046,29.01357
"100 W BERESFORD AV, DeLand, FL",-81.30317,29.01377
"4000 RIDGEWOOD AV, Port Orange, FL",-80.98679,29.14205
"700 KENTUCKY ST, Daytona Beach, FL",-81.0639,29.209335
"300 N LINCOLN ST, Daytona Beach, FL",-81.035095,29.214777
"200 N STONE ST, DeLand, FL",-81.31599,29.02996
"200 N RIDGEWOOD AV, Daytona Beach, FL",-81.03271,29.229166
"300 S YONGE ST, Ormond Beach, FL",-81.05792,29.274786
"2100 W INTL SPEEDWAY BLVD, Daytona Beach, FL",-81.076515,29.18728
"4500 CLYDE MORRIS BLVD, Port Orange, FL",-81.03151,29.135624
"100 MAIN ST, Daytona Beach, FL",-81.014824,29.22426
"900 S ATLANTIC AV, Daytona Beach, FL",-81.00249,29.214882
"800 N NOVA RD, Daytona Beach, FL",-81.04738,29.219782
"100 S RIDGEWOOD AV, Daytona Beach, FL",-81.03168,29.227274
"100 CAROLINA LAKE DR, Daytona Beach, FL",-81.08811,29.203114
"3500 NOVA RD, Port Orange, FL",-81.01268,29.140965
"600 W WISCONSIN AV, DeLand, FL",-81.31505,29.031626
"300 N LINCOLN ST, Daytona Beach, FL",-81.035095,29.214777
"700 W EUCLID AV, DeLand, FL",-81.31573,29.020805
"1700 S DIXIE FREEWAY, New Smyrna Beach, FL",-80.91726,29.006203
"1300 NUTWOOD DR, DeLand, FL",-81.292816,29.005669
"1000 BEULAH DR, Edgewater, FL",-80.908875,28.980692
"100 S NOVA RD, Ormond Beach, FL",-81.08289,29.277311
"1900 MAGNOLIA AV, South Daytona, FL",-81.019005,29.169947
"500 SEABREEZE BLVD, Daytona Beach, FL",-81.01445,29.234837
"100 N ATLANTIC AV, New Smyrna Beach, FL",-80.89704,29.038633
"900 S WOODLAND BLVD, DeLand, FL",-81.30296,29.013664
"900 BIG TREE RD, South Daytona, FL",-81.018265,29.168432
"500 N OLEANDER AV, Daytona Beach, FL",-81.015076,29.232824
"600 BEVILLE RD, South Daytona, FL",-81.01577,29.180628
"900 CANALVIEW BLVD, Port Orange, FL",-81.00409,29.138588
"100 N RIDGEWOOD AV, Daytona Beach, FL",-81.03168,29.227274
"1800 S RIVERSIDE DR, Edgewater, FL",-80.893555,28.973562
"1600 N US HWY 1, Ormond Beach, FL",-81.13142,29.336
"200 S WOODLAND BLVD, DeLand, FL",-81.30337,29.02612
"1500 S RIDGEWOOD AV, Daytona Beach, FL",-81.04542,29.252542
"100 S STONE ST, DeLand, FL",-81.31591,29.027792
"100 N CAUSEWAY, New Smyrna Beach, FL",-80.94782,29.067661
"900 S FLORIDA AV, DeLand, FL",-81.305046,29.01357
"300 NORTH ST, Daytona Beach, FL",-81.028824,29.221678
"1600 DUNLAWTON AVE, Port Orange, FL",-81.02535,29.111927
"100 NEW BRITAIN AV, Ormond Beach, FL",-81.05921,29.28531
"200 ARLINGTON AV, Daytona Beach, FL",-81.026596,29.221237
"1700 W INTL SPEEDWAY BLVD, Daytona Beach, FL",-81.06329,29.194391
"200 BIG TREE RD, South Daytona, FL",-81.001854,29.174814
"300 COUNTRY CLUB OVAL, Daytona Beach, FL",-81.01185,29.190208
"1600 N WOODLAND BLVD, DeLand, FL",-81.304565,29.060051
"1100 S RIDGEWOOD AV, Daytona Beach, FL",-81.04183,29.245941
"2400 S NOVA RD, South Daytona, FL",-81.02188,29.158033
"800 BLACK DUCK DR, Port Orange, FL",-81.01286,29.11815
"1500 EDGEWATER RD, Daytona Beach, FL",-81.0244,29.178183
"400 S WOODLAND BLVD, DeLand, FL",-81.30327,29.022547
"600 N RIDGEWOOD AV, Daytona Beach, FL",-81.03648,29.23611
"200 HAYNES ST, Daytona Beach, FL",-81.02996,29.205393
"800 N NOVA RD, Daytona Beach, FL",-81.04738,29.219782
"600 N ATLANTIC AV, Daytona Beach, FL",-81.01253,29.235699
"300 N MARTIN LUTHER KING BLVD, Daytona Beach, FL",-81.03207,29.214289
"200 MAIN ST, Daytona Beach, FL",-81.013504,29.224781
"800 W INDIAN RIVER BLVD, Edgewater, FL",-80.90271,28.96958
"600 SAXON BLVD, Orange City, FL",-81.29786,28.91196
"1400 S WOODLAND BLVD, DeLand, FL",-81.30431,29.052017
"100 W NEW HAMPSHIRE AV, DeLand, FL",-81.30248,29.006275
"400 E INTL SPEEDWAY BLVD, Daytona Beach, FL",-81.02422,29.210258
"2300 NORTH VOLUSI AVE, Orange City, FL",-81.298645,28.966135
"200 AUDITORIUM BLVD, Daytona Beach, FL",-81.014336,29.226343
"800 N NOVA RD, Daytona Beach, FL",-81.04738,29.219782
"2000 S RIDGEWOOD AV, South Daytona, FL",-81.00334,29.174065
"3800 CLYDE MORRIS BLVD, Port Orange, FL",-81.03526,29.142838
"800 W PLYMOUTH AV, DeLand, FL",-81.3186,29.042593
"800 W PLYMOUTH AV, DeLand, FL",-81.3186,29.042593
"800 N BEACH ST, Ormond Beach, FL",-81.0657,29.306128
"100 S WILD OLIVE AV, Daytona Beach, FL",-81.0094,29.223722
"500 WAYNE AV, New Smyrna Beach, FL",-80.931946,29.033676
"600 N OLEANDER AV, Daytona Beach, FL",-81.01586,29.234488
"6100 RIDGEWOOD AV, Port Orange, FL",-80.9725,29.10482
"2900 S RIDGEWOOD AV, South Daytona, FL",-80.99445,29.15676
"1600 S PALMETTO AV, South Daytona, FL",-81.00652,29.183613
"900 S WILLIAMSON BLVD, Daytona Beach, FL",-81.07911,29.168766
"200 NEPTUNE AV, Ormond Beach, FL",-81.04652,29.300362
"1600 S RIDGEWOOD AV, South Daytona, FL",-81.008514,29.183601
"1000 DUNLAWTON AV, Port Orange, FL",-81.00523,29.127396
"4600 CLYDE MORRIS BLVD, Port Orange, FL",-81.02584,29.129583
"13000 CAROLINES COVE, Ormond Beach, FL",-81.11346,29.262505
"1000 N SWALLOW TAIL DR, Port Orange, FL",-81.01467,29.12497
"1000 N ATLANTIC AV, Daytona Beach, FL",-81.01582,29.242548
"300 N ATLANTIC AV, Daytona Beach, FL",-81.0105,29.231506
"500 SEABREEZE BLVD, Daytona Beach, FL",-81.01445,29.234837
"100 E FAIRVIEW AV, Daytona Beach, FL",-81.02339,29.221153
"5300 LANDIS AV, Port Orange, FL",-80.97807,29.121191
"600 S WOODLAND BLVD, DeLand, FL",-81.30316,29.019053
"2600 S WOODLAND BLVD, DeLand, FL",-81.31468,29.078646
"100 S ATLANTIC AV, Daytona Beach, FL",-81.00733,29.22497
"800 OCEAN AV, New Smyrna Beach, FL",-80.89657,29.034409
"1200 S ATLANTIC AV, Daytona Beach, FL",-81.00124,29.212196
"500 BEVILLE RD, South Daytona, FL",-81.01395,29.181395
"1200 N ATLANTIC AV, Daytona Beach, FL",-81.017555,29.246136
"200 E VOORHIS AV, DeLand, FL",-81.30113,29.02452
"600 N GRANDVIEW AV, Daytona Beach, FL",-81.01355,29.235325
"600 W INTL SPEEDWAY BLVD, Daytona Beach, FL",-81.00808,29.221315
"100 MASON AV, Daytona Beach, FL",-81.02665,29.228561
"400 SOUTH VOLUSIA AVE, Orange City, FL",-81.29886,28.946817
"3500 RED PONTIAC DR, Port Orange, FL",-81.018456,29.143301
"100 E NEW HAMPSHIRE AV, DeLand, FL",-81.30248,29.006275
"400 E GRAVES AV, Orange City, FL",-81.29456,28.948769
"3100 S RIDGEWOOD AV, South Daytona, FL",-80.99309,29.154148
"2400 S VOLUSIA AV, Orange City, FL",-81.298645,28.966324
"1200 8TH ST, Daytona Beach, FL",-81.05875,29.23057
"300 FLAGLER AV, New Smyrna Beach, FL",-80.900604,29.038555
"200 GARDEN ST, Daytona Beach, FL",-81.03431,29.20783
"100 S PENINSULA DR, Daytona Beach, FL",-81.0119,29.223402
"1700 S WOODLAND BLVD, DeLand, FL",-81.30458,29.061018
"2300 W INTL SPEEDWAY BLVD, Daytona Beach, FL",-81.08161,29.177591
"3600 NOVA RD, Port Orange, FL",-81.01081,29.137594
"200 THORNBERRY BRANCH LN, Daytona Beach, FL",-81.12546,29.204304
"600 BEVILLE RD, South Daytona, FL",-81.01577,29.180628
"300 N WOODLAND BLVD, DeLand, FL",-81.30358,29.031775
"5400 BLOCK ISABELLE, Port Orange, FL",-80.98216,29.119986
"400 FLAGLER AV, New Smyrna Beach, FL",-80.8986,29.03856
"600 S NOVA RD, Ormond Beach, FL",-81.07852,29.266218
"1900 S NOVA RD, South Daytona, FL",-81.02364,29.165817
"1600 S RIDGEWOOD AV, South Daytona, FL",-81.008514,29.183601
"6100 S WILLIAMSON BLVD, Port Orange, FL",-81.02566,29.084412
"1700 N VOLUSIA AV, Orange City, FL",-81.29889,28.931944
"1100 W GRANADA BLVD, Ormond Beach, FL",-81.09725,29.2713
"1800 DUNLAWTON AV, Port Orange, FL",-81.02612,29.10945
"1200 SAXON BLVD, Orange City, FL",-81.27892,28.911192
"3700 NOVA RD, Port Orange, FL",-81.00924,29.134981
"2200 GARFIELD DR, South Daytona, FL",-81.0073,29.167627
"1700 MASON AV, Daytona Beach, FL",-81.0674,29.211325
"100 S SEGRAVE ST, Daytona Beach, FL",-81.02407,29.21013
"2500 S NOVA RD, South Daytona, FL",-81.02069,29.155825
"6100 S WILLIAMSON BLVD, Port Orange, FL",-81.02566,29.084412
"1900 S RIDGEWOOD AV, Edgewater, FL",-80.895004,28.97114
"100 W INDIAN RIVER BLVD, Edgewater, FL",-80.89744,28.97205
"800 SUGAR HOUSE DR, Port Orange, FL",-81.00949,29.145323
"2200 TURNBULL BAY RD, New Smyrna Beach, FL",-80.96409,29.05279
"5900 RIDGEWOOD AV, Port Orange, FL",-80.97321,29.106941
"800 W PHEASANT RUN CT, Port Orange, FL",-81.008644,29.105795
"600 N WILD OLIVE AV, Daytona Beach, FL",-81.014595,29.234947
"400 SPRUCE ST, New Smyrna Beach, FL",-80.93942,29.024101
"700 S WOODLAND BLVD, DeLand, FL",-81.3031,29.017181
"4000 NOVA RD, Port Orange, FL",-81.00146,29.120985
"400 N BEACH ST, Daytona Beach, FL",-81.022484,29.21995
"6000 ST GEORGES RD, Ormond Beach, FL",-81.11337,29.260065
"800 S ATLANTIC AV, Ormond Beach, FL",-81.02993,29.271654
"300 W GRANADA BLVD, Ormond Beach, FL",-81.06402,29.282204
"1600 S RIDGEWOOD AV, South Daytona, FL",-81.008514,29.183601
"100 E INTL SPEEDWAY BLVD, Daytona Beach, FL",-81.01952,29.212173
"300 N PENINSULA DR, Daytona Beach, FL",-81.01536,29.22984
"1300 W INTL SPEEDWAY BLVD, Daytona Beach, FL",-81.05429,29.197615
"700 MULBERRY ST, Daytona Beach, FL",-81.02803,29.22424
"1200 S ATLANTIC AV, Daytona Beach, FL",-81.00124,29.212196
"1600 S ATLANTIC AV, Daytona Beach, FL",-80.998985,29.2081
"1800 SR 44, New Smyrna Beach, FL",-80.94232,29.01441
"600 N RIDGEWOOD AV, Daytona Beach, FL",-81.03648,29.23611
"1700 TAYLOR RD, Port Orange, FL",-81.04594,29.096294
"5600 RIDGEWOOD AV, Port Orange, FL",-80.97461,29.116627
"700 HERBERT ST, Port Orange, FL",-81.00089,29.142895
"400 N WILD OLIVE AV, Daytona Beach, FL",-81.01305,29.231615
"1700 S RIDGEWOOD AV, Edgewater, FL",-80.89743,28.974928
"1000 MADELINE AV, Port Orange, FL",-81.015396,29.144054
"3000 S RIDGEWOOD AV, Edgewater, FL",-80.883896,28.947655
"1800 S RIDGEWOOD AV, Edgewater, FL",-80.89646,28.973457
"400 S RIVERSIDE DR, Edgewater, FL",-80.902885,28.989687
"3900 NOVA RD, Port Orange, FL",-81.0034,29.1245
"3800 NOVA RD, Port Orange, FL",-81.00641,29.129889
"400 S DIXIE FREEWAY, New Smyrna Beach, FL",-80.92794,29.026869
"200 BELLEVUE AV, Daytona Beach, FL",-81.01461,29.197872
"3700 RIDGEWOOD AV, Port Orange, FL",-80.989044,29.14619
"600 S NOVA RD, Ormond Beach, FL",-81.07852,29.266218
"2200 JUNIPER DR, Edgewater, FL",-80.901306,28.96172
"200 DEVON STREET, Port Orange, FL",-80.99799,29.10551
"100 W CONNECTICUT AV, Edgewater, FL",-80.906265,28.986237
"100 CANAL STREET, New Smyrna Beach, FL",-80.92093,29.025623
"200 CHESTNUT ST, New Smyrna Beach, FL",-80.92811,29.021784
"1600 N US HWY 1, Ormond Beach, FL",-81.13142,29.336
"3500 NOVA RD, Port Orange, FL",-81.01268,29.140965
"100 N NOVA RD, Ormond Beach, FL",-81.08272,29.280264
"3700 RIDGEWOOD AVENUE, Port Orange, FL",-80.989044,29.14619
"100 BOSTON RD, Edgewater, FL",-80.893974,28.969805
"2300 SR 44, New Smyrna Beach, FL",-80.96003,29.013283
"1900 S RIDGEWOOD AV, Edgewater, FL",-80.895004,28.97114
"100 S WOODLAND BLVD, DeLand, FL",-81.30343,29.028006
"100 E GRANADA BLVD, Ormond Beach, FL",-81.04451,29.29014
"1000 S RIVERSIDE DR, Edgewater, FL",-80.89879,28.98421
"1500 S NOVA RD, Daytona Beach, FL",-81.02897,29.177477
"100 DEER LAKE CIR, Ormond Beach, FL",-81.098595,29.272041
"300 NOTTINGHILL ST, Ormond Beach, FL",-81.1016,29.261187
"1700 DUNLAWTON AVE, Port Orange, FL",-81.02574,29.110687
"200 FREMONT AV, Daytona Beach, FL",-81.013565,29.195957
"3600 JACKSON ST, Port Orange, FL",-81.00912,29.13928
"3800 NOVA RD, Port Orange, FL",-81.00641,29.129889
"3800 SAXON DR, New Smyrna Beach, FL",-80.882225,29.006353
"1500 N WOODLAND BLVD, DeLand, FL",-81.30442,29.055216
"1300 HERBERT ST, Port Orange, FL",-81.018135,29.133081
"3300 RIDGEWOOD AV, Port Orange, FL",-80.99105,29.150328
"1100 W GRANADA BLVD, Ormond Beach, FL",-81.09725,29.2713
"4500 BLOCK CLYDE MORRIS BLV, Port Orange, FL",-81.03151,29.135624
"3400 RIDGEWOOD AV, Port Orange, FL",-80.99048,29.149174
"1600 N US HWY 1, Ormond Beach, FL",-81.13142,29.336
"800 W HUBBARD AV, DeLand, FL",-81.317795,29.018955
"1800 SR 44, New Smyrna Beach, FL",-80.94232,29.01441
"1700 DUNLAWTON AVE, Port Orange, FL",-81.02574,29.110687
"4500 CLYDE MORRIS BLVD, Port Orange, FL",-81.03151,29.135624
"1700 DUNLAWTON AV, Port Orange, FL",-81.02574,29.110687
"200 N ATLANTIC AV, Daytona Beach, FL",-81.00975,29.229982
"700 MAIN ST, Daytona Beach, FL",-81.01036,29.225908
"600 E HOWRY AV, DeLand, FL",-81.292915,29.026314
"4000 NOVA RD, Port Orange, FL",-81.00146,29.120985
"3000 S RIDGEWOOD AV, Edgewater, FL",-80.883896,28.947655
"1100 E PLYMOUTH AV, DeLand, FL",-81.28307,29.043125
"100 N CARPENTER AV, Orange City, FL",-81.30301,28.948793
"1600 N WOODLAND BLVD, DeLand, FL",-81.304565,29.060051
"300 E PENNSYLVANIA AV, DeLand, FL",-81.299164,29.03908
"1700 N WOODLAND BLVD, DeLand, FL",-81.30458,29.061018
"200 S FRANKLIN ST, Daytona Beach, FL",-81.03278,29.204237
"5200 RIDGEWOOD AV, Port Orange, FL",-80.97837,29.124994
"100 OLD SUNBEAM DR, South Daytona, FL",-81.015076,29.151173
"2800 N ATLANTIC AV, Daytona Beach, FL",-81.02736,29.265736
"3700 JACKSON ST, Port Orange, FL",-81.00695,29.135193
"800 N HALIFAX AV, Daytona Beach, FL",-81.019745,29.237024
"2600 S WOODLAND BLVD, DeLand, FL",-81.31468,29.078646
"100 PARK AV, Daytona Beach, FL",-80.99832,29.201006
"200 MINORCA BEACH WAY, New Smyrna Beach, FL",-80.91069,29.061733
"2100 PURPLE MARTIN WAY, Port Orange, FL",-81.04866,29.096857
"700 OAKWATER LN, Port Orange, FL",-81.02036,29.07293
"500 N OLEANDER AV, Daytona Beach, FL",-81.015076,29.232824
"100 N OLD COUNTY RD, Edgewater, FL",-80.91113,28.990713
"1500 RIDGEWOOD AV, Holly Hill, FL",-81.04542,29.252542
"500 S HIGH ST, DeLand, FL",-81.317764,29.020622
"700 MULBERRY ST, Daytona Beach, FL",-81.02803,29.22424
"1500 N NOVA RD, Holly Hill, FL",-81.05897,29.240595
"1600 DUNN AV, Daytona Beach, FL",-81.0618,29.204676
"1500 DUNLAWTON AV, Port Orange, FL",-81.0241,29.115534
"100 ABBY LN, Port Orange, FL",-80.993256,29.103548
"1800 SEGRAVE ST, South Daytona, FL",-81.00837,29.17761
"300 BENT OAK DR, Port Orange, FL",-80.999214,29.102541
"1600 RIDGE AV, Holly Hill, FL",-81.04579,29.256226
"100 MAPLEWOOD DR, Daytona Beach, FL",-81.05143,29.218163
"3100 SR 44, New Smyrna Beach, FL",-81.004875,29.012335
"2700 N ATLANTIC AV, Daytona Beach, FL",-81.026855,29.264698
"2400 S WOODLAND BLVD, DeLand, FL",-81.308586,29.07399
"1300 W INTL SPEEDWAY BLVD, Daytona Beach, FL",-81.05429,29.197615
"1800 CRANE LAKES BLVD, Port Orange, FL",-81.04698,29.099907
"300 EDGEWOOD BLVD, DeLand, FL",-81.316315,29.02395
"1900 S RIDGEWOOD AV, Edgewater, FL",-80.895004,28.97114
"6700 MERRYVALE LN, Port Orange, FL",-81.02856,29.059935
"900 W OHIO AV, Orange City, FL",-81.30723,28.939512
"5100 ORANGE AV, Port Orange, FL",-80.98466,29.126211
"3800 NOVA RD, Port Orange, FL",-81.00641,29.129889
"800 MASON AV, Daytona Beach, FL",-81.04272,29.22169
"2400 N ATLANTIC AV, Daytona Beach, FL",-81.02393,29.259956
"1200 S NOVA RD, Daytona Beach, FL",-81.03003,29.183504
"2600 ENTERPRISE ROAD, Orange City, FL",-81.29356,28.914335
"200 STONINGTON WAY, DeLand, FL",-81.256775,28.985655
"2600 ENTERPRISE RD, Orange City, FL",-81.29356,28.914335
"1600 DUNLAWTON AV, Port Orange, FL",-81.02535,29.111927
"700 TUMBLEBROOK DR, Port Orange, FL",-81.01073,29.097872
"1100 HARMS WAY, Port Orange, FL",-81.02905,29.125006
"1800 ROYAL PALM DR, Edgewater, FL",-80.912224,28.968206
"800 LIMEWOOD AV, DeLand, FL",-81.28855,29.04923
"1700 S CLYDE MORRIS BLVD, Daytona Beach, FL",-81.03874,29.165956
"400 VICTORIA HILLS DR, DeLand, FL",-81.267426,28.97897
"5400 FREDERICK LAKE DR, Port Orange, FL",-81.05399,29.096489
"3800 NOVA RD, Port Orange, FL",-81.00641,29.129889
"1700 S RIVERSIDE DR, Edgewater, FL",-80.8946,28.975735
"6400 CYPRESS SPRINGS PKWY, Port Orange, FL",-81.02016,29.055527
"3100 SR 44, New Smyrna Beach, FL",-81.004875,29.012335
"1100 NATURE VIEW CIR, Port Orange, FL",-81.02048,29.04875
"1400 AQUARIUS AV, DeLand, FL",-81.296646,29.004383
"1200 EDNA DR, Port Orange, FL",-81.02983,29.123657
"2500 N ATLANTIC AV, Daytona Beach, FL",-81.02526,29.261831
"700 INDIAN HILL DR, Port Orange, FL",-81.025406,29.140245
"1200 8TH ST, Daytona Beach, FL",-81.05875,29.23057
"800 MAIN ST, Daytona Beach, FL",-81.00938,29.226261
"500 MAIN ST, Daytona Beach, FL",-81.01151,29.225492
"700 WINCHESTER ST, Daytona Beach, FL",-81.037186,29.221424
"100 GRAY DOVE CT, Daytona Beach, FL",-81.05767,29.157822
"200 S WOODLAND BLVD, DeLand, FL",-81.30337,29.02612
"300 HOPKINS AV, Holly Hill, FL",-81.04153,29.228317
"700 RIDGEWOOD AV, Holly Hill, FL",-81.037285,29.237574
"800 DERBYSHIRE RD, Daytona Beach, FL",-81.05571,29.216463
"900 PONDEROSA DR, South Daytona, FL",-81.01447,29.161251
"5600 CHRISTIANCY AV, Port Orange, FL",-80.9805,29.117744
"200 E INTL SPEEDWAY BLVD, DeLand, FL",-81.30211,29.054699
"2200 W INTL SPEEDWAY BLVD, Daytona Beach, FL",-81.077774,29.18486
"2400 S WOODLAND BLVD, DeLand, FL",-81.308586,29.07399
"500 HEATHER LANE, Orange City, FL",-81.30619,28.952608
"700 W INTL SPEEDWAY BLVD, Daytona Beach, FL",-81.031715,29.206764
"800 SAXON BLVD, Orange City, FL",-81.291756,28.911217
"2200 W INTL SPEEDWAY BLVD, Daytona Beach, FL",-81.077774,29.18486
"1800 S RIDGEWOOD AV, Edgewater, FL",-80.89646,28.973457
"100 LAKEWOOD VILLAGE CIR, Daytona Beach, FL",-81.04642,29.166817
"300 S RIDGEWOOD AV, Edgewater, FL",-80.90691,28.989914
"6000 SANCUARY GARDEN BLVD, Port Orange, FL",-81.03069,29.080002
"3100 VISTA PALM DR, Edgewater, FL",-80.90753,28.93922
"400 SEABREEZE BLVD, Daytona Beach, FL",-81.01571,29.234383
"200 FENTRESS BLVD, Daytona Beach, FL",-81.07932,29.191227
"200 WHISPERING OAKS CT, Orange City, FL",-81.297264,28.938343
"1500 N NOVA RD, Holly Hill, FL",-81.05897,29.240595
"800 MASON AV, Daytona Beach, FL",-81.04272,29.22169
"800 MASON AV, Daytona Beach, FL",-81.04272,29.22169
"2500 ENTERPRISE RD, Orange City, FL",-81.29627,28.919147
"800 E COLONIAL CIR, Daytona Beach, FL",-81.057205,29.232979
"5800 RIDGEWOOD AV, Port Orange, FL",-80.97336,29.110004
"200 S SEGRAVE ST, Daytona Beach, FL",-81.0231,29.20828
"600 S KEECH ST, Daytona Beach, FL",-81.032,29.195316
"100 SEA HAWK DR, Daytona Beach, FL",-81.05904,29.16094
"700 BUTLER BLVD, Daytona Beach, FL",-81.011894,29.231869
"600 S ATLANTIC AV, New Smyrna Beach, FL",-80.89487,29.035208
"1800 W INTL SPEEDWAY BLVD, Daytona Beach, FL",-81.067375,29.192913
"200 S WOODLAND BLVD, DeLand, FL",-81.30337,29.02612
"200 S RIDGEWOOD AV, Daytona Beach, FL",-81.03271,29.229166
"1000 HARLEY STRICKLAND BLVD, Orange City, FL",-81.284966,28.916592
"100 FOUNTAIN LAKE BLVD, Daytona Beach, FL",-81.06962,29.22997
"800 N NOVA RD, Daytona Beach, FL",-81.04738,29.219782
"4500 CLYDE MORRIS BLVD, Port Orange, FL",-81.03151,29.135624
"5400 FINLEY DR, Port Orange, FL",-80.988655,29.120811
"800 CATHERINE AV, Holly Hill, FL",-81.05334,29.233164
"4500 CLYDE MORRIS BLVD, Port Orange, FL",-81.03151,29.135624
"5500 LANCEWOOD DR, Port Orange, FL",-80.97556,29.113962
"5900 BRANDON LN, Port Orange, FL",-80.993744,29.09469
"2400 S NOVA RD, South Daytona, FL",-81.02188,29.158033
"400 HUDSON ST, Daytona Beach, FL",-81.02818,29.202887
"3900 OAK CREST CIR, Port Orange, FL",-81.01437,29.12574
"600 S PENINSULA DR, Daytona Beach, FL",-81.00931,29.218658
"3400 GAVESON CT, Port Orange, FL",-81.00796,29.152607
"200 PERFECT DR, Daytona Beach, FL",-81.11339,29.20098
"900 ORANGE AV, Daytona Beach, FL",-81.0341,29.201576
"500 HARVEY AV, Daytona Beach, FL",-81.01023,29.22408
"100 E NEW YORK AVE, DeLand, FL",-81.303345,29.028088
"500 SEABREEZE BLVD, Daytona Beach, FL",-81.01445,29.234837
"100 WENTWORTH GRANDE DR, Daytona Beach, FL",-81.0974,29.167295
"400 NEWTON RD, Port Orange, FL",-80.98984,29.09005
"4000 NOVA RD, Port Orange, FL",-81.00146,29.120985
"700 CANAL ST, New Smyrna Beach, FL",-80.92812,29.02291
"1000 15TH ST, Holly Hill, FL",-81.06031,29.246014
"200 LINDEN ST, Port Orange, FL",-80.9872,29.130775
"800 MASON AV, Daytona Beach, FL",-81.04272,29.22169
"100 NORTHLAKE DR, Orange City, FL",-81.285706,28.945671
"100 BOYSENBERRY LANE, Daytona Beach, FL",-81.12207,29.196028
"1300 IMPERIAL DR, Daytona Beach, FL",-81.062416,29.225334
"4600 SECRET RIVER TR, Port Orange, FL",-81.03907,29.134127
"3600 CARAMEL AV, Port Orange, FL",-80.9971,29.141884
"1500 DUNLAWTON AV, Port Orange, FL",-81.0241,29.115534
"300 N CHARLES ST, Daytona Beach, FL",-81.02771,29.214237
"5400 WOOD ST, Port Orange, FL",-80.98741,29.120647
"600 S CLYDE MORRIS BLVD, Daytona Beach, FL",-81.05059,29.192335
"200 LYTHAM WAY, Daytona Beach, FL",-81.11576,29.186932
"200 LYTHAM WAY, Daytona Beach, FL",-81.11576,29.186932
"100 W PLYMOUTH AVE, DeLand, FL",-81.30472,29.042795
"1300 N ATLANTIC AV, Daytona Beach, FL",-81.01851,29.248138
"5800 RIDGEWOOD AV, Port Orange, FL",-80.97336,29.110004
"1700 MASON AV, Daytona Beach, FL",-81.0674,29.211325
"300 AYESBURY CIR, DeLand, FL",-81.323685,29.083044
"700 BELLEVUE AV, Daytona Beach, FL",-81.0235,29.193867
"300 E RICH AV, DeLand, FL",-81.298416,29.02992
"1900 SR 44, New Smyrna Beach, FL",-80.944725,29.013723
"5800 RIDGEWOOD AV, Port Orange, FL",-80.97336,29.110004
"900 CANAL VIEW BLVD, Port Orange, FL",-81.00409,29.138588
"100 POINT O WOODS DR, Daytona Beach, FL",-81.087456,29.188843
"2400 ENTERPRISE RD, Orange City, FL",-81.298256,28.922174
"5400 S WILLIAMSON BLVD, Port Orange, FL",-81.03873,29.11067
"1800 SR 44, New Smyrna Beach, FL",-80.94232,29.01441
"900 N WOODLAND BLVD, DeLand, FL",-81.304,29.042973
"800 E LANSDOWNE AVE, Orange City, FL",-81.28889,28.955894
"1800 MAGNOLIA AV, South Daytona, FL",-81.02086,29.173172
"600 W INTL SPEEDWAY BLVD, Daytona Beach, FL",-81.00808,29.221315
"1700 MASON AV, Daytona Beach, FL",-81.0674,29.211325
"1600 ARECA PALM DR, Port Orange, FL",-81.052345,29.107458
"900 COUNTRYSIDE WEST BLVD, Port Orange, FL",-81.00882,29.110611
"2200 S VOLUSIA AV, Orange City, FL",-81.29887,28.92499
"400 E FRENCH AV, Orange City, FL",-81.294556,28.952278
"300 ORANGE BLOSSOM DR, South Daytona, FL",-81.00789,29.182251
"300 E NEW YORK AV, DeLand, FL",-81.29906,29.028084
"1100 RAIFORD AV, Daytona Beach, FL",-81.045586,29.204308
"300 S PENINSULA DR, Daytona Beach, FL",-81.01038,29.22064
"2800 SAULS ST, South Daytona, FL",-81.00864,29.155237
"1700 LANGLEY AV, DeLand, FL",-81.27496,29.060055
"100 HARDIN PLACE, Edgewater, FL",-80.89758,28.975662
"4500 CLYDE MORRIS BLVD, Port Orange, FL",-81.03151,29.135624
"400 NEWTON RD, Port Orange, FL",-80.98984,29.09005
"2100 BRIAN AV, South Daytona, FL",-81.011375,29.166658
"1900 MASON AV, Daytona Beach, FL",-81.073654,29.209461
"5400 WOOD ST, Port Orange, FL",-80.98741,29.120647
"800 W FRANKLIN AVE, DeLand, FL",-81.31781,29.016275
"100 IRON GATE CIR, Port Orange, FL",-81.01558,29.135525
"1300 W INTL SPEEDWAY BLVD, Daytona Beach, FL",-81.05429,29.197615
"400 MERRIMAC DR, Port Orange, FL",-80.98882,29.097212
"300 JOY ROAD, South Daytona, FL",-80.99562,29.15825
"900 SAXON BLVD, Orange City, FL",-81.28915,28.911224
"1300 S WOODLAND BLVD, DeLand, FL",-81.30428,29.051094
"3600 NANTUCKET ISLAND DR, Port Orange, FL",-81.03762,29.149408
"800 MASON AV, Daytona Beach, FL",-81.04272,29.22169
"5600 TOURO DR, Port Orange, FL",-81.00114,29.113497
"900 S FLORIDA AVE, DeLand, FL",-81.305046,29.01357
"5800 S WILLIAMSON BLVD, Port Orange, FL",-81.031235,29.104725
"700 ACER CT, DeLand, FL",-81.291954,29.0164
"400 WALES AV, Port Orange, FL",-80.98978,29.10648
"2300 SR 44, New Smyrna Beach, FL",-80.96003,29.013283
"500 E PALM PL, Port Orange, FL",-80.99613,29.107796
"1800 FOROUGH CIR, Port Orange, FL",-81.038246,29.06248
"200 BLUE CRYSTAL DR, DeLand, FL",-81.30823,28.990955
"3500 FOREST BRANCH DR, Port Orange, FL",-81.0376,29.154602
"100 E NEW YORK AVE, DeLand, FL",-81.303345,29.028088
"1400 MADELINE AV, Port Orange, FL",-81.02692,29.143051
"1800 SR 44, New Smyrna Beach, FL",-80.94232,29.01441
"4500 CLYDE MORRIS BLVD, Port Orange, FL",-81.03151,29.135624
"200 S GRANDVIEW AV, Daytona Beach, FL",-81.00773,29.222603
"400 RAVENSHILL WAY, DeLand, FL",-81.25744,28.979206
"800 S BENTON LAKE DR, DeLand, FL",-81.28894,29.050688
"500 HARVEY AV, Daytona Beach, FL",-81.01023,29.22408
"1500 S NOVA RD, Daytona Beach, FL",-81.02897,29.177477
"2500 N DIXIE FREEWAY, New Smyrna Beach, FL",-80.94504,29.063732
"3600 S ATLANTIC AV, New Smyrna Beach, FL",-80.8798,29.009815
"1500 RIDGE AV, Holly Hill, FL",-81.04408,29.253113
"17100 NEWPORT SOUND PL, New Smyrna Beach, FL",-80.92726,29.00242
"200 W HOWRY AV, DeLand, FL",-81.30557,29.026274
"800 S VOLUSIA AVE, Orange City, FL",-81.298874,28.940916
"900 E PENNSYLVANIA AVE, DeLand, FL",-81.28637,29.039318
"400 S RIDGEWOOD AV, Edgewater, FL",-80.90594,28.988342
"900 LONG SHADOW RD, South Daytona, FL",-81.02236,29.175154
"1700 DUNLAWTON AV, Port Orange, FL",-81.02574,29.110687
"100 CAMBRIDGE DR, Port Orange, FL",-80.99375,29.105158
"300 N RIDGEWOOD AV, Daytona Beach, FL",-81.03404,29.231602
"1600 HANCOCK BLVD, Daytona Beach, FL",-81.04311,29.1709
"4000 NOVA RD, Port Orange, FL",-81.00146,29.120985
"1800 S RIDGEWOOD AV, Edgewater, FL",-80.89646,28.973457
"1900 BIG CRANE LOOP, Port Orange, FL",-81.04424,29.106438
"800 MASON AV, Daytona Beach, FL",-81.04272,29.22169
"500 SEABREEZE BLVD, Daytona Beach, FL",-81.01445,29.234837
"400 E INTERNATIONAL SPEEDWAY BLVD, DeLand, FL",-81.29806,29.05477
"1600 TAYLOR RD, Port Orange, FL",-81.03761,29.102337
"500 E LANSDOWNE AVE, Orange City, FL",-81.2925,28.955873
"100 ENCLAVE AV, DeLand, FL",-81.28263,29.011145
"300 BOYLSTON AV, Daytona Beach, FL",-81.02764,29.259846
"200 1ST AV, Daytona Beach, FL",-81.02491,29.217642
"700 S NOVA RD, Daytona Beach, FL",-81.03361,29.19225
"300 E NEW YORK AV, DeLand, FL",-81.29906,29.028084
"400 PENDREY DR, Port Orange, FL",-80.98489,29.09064
"400 WALES AV, Port Orange, FL",-80.98978,29.10648
"100 BENT TREE DR, Daytona Beach, FL",-81.087105,29.205828
"400 W MINNESOTA AV, DeLand, FL",-81.31003,29.035383
"300 WENTWORTH AV, Daytona Beach, FL",-81.11718,29.186123
"800 JASMINE AV, Holly Hill, FL",-81.04437,29.238022
"700 N GRANDVIEW AV, Daytona Beach, FL",-81.01433,29.236992
"3800 LONG GROVE LN, Port Orange, FL",-81.03835,29.142618
"100 E RICH AV, DeLand, FL",-81.30341,29.02989
"300 DIVISION ST, Daytona Beach, FL",-81.02564,29.204504
"700 FLOMICH ST, Holly Hill, FL",-81.05735,29.251308
"800 MASON AV, Daytona Beach, FL",-81.04272,29.22169
"2600 S WOODLAND BLVD, DeLand, FL",-81.31468,29.078646
"2600 S WOODLAND BLVD, DeLand, FL",-81.31468,29.078646
"1100 BEVILLE RD, Daytona Beach, FL",-81.02695,29.17603
"500 N WILD OLIVE AV, Daytona Beach, FL",-81.01382,29.233265
"2200 S VOLUSIA AV, Orange City, FL",-81.29887,28.92499
"1100 CORDOVA AV, Daytona Beach, FL",-81.0469,29.199482
"500 N BEACH ST, Daytona Beach, FL",-81.023346,29.221277
"100 WESTWOOD DR, Daytona Beach, FL",-81.04159,29.168436
"800 SAXON BLVD, Orange City, FL",-81.291756,28.911217
"800 N WOODLAND BLVD, DeLand, FL",-81.30385,29.040956
"1400 HENSLEY DR, DeLand, FL",-81.29189,29.05203
"400 ARNOLD DR, Daytona Beach, FL",-81.03642,29.182594
"3100 YULE TREE DR, Edgewater, FL",-80.905785,28.939821
"200 S CAROLINE ST, Daytona Beach, FL",-81.03711,29.202454
"1700 SR 44, New Smyrna Beach, FL",-80.94205,29.01453
"1200 NORTH ST, Daytona Beach, FL",-81.0553,29.211157
"3000 S RIDGEWOOD AV, South Daytona, FL",-80.993805,29.15544
"900 ORANGE AV, Port Orange, FL",-80.99279,29.146366
"800 DUNCAN RD, South Daytona, FL",-81.012726,29.1646
"1000 S BEACH ST, Daytona Beach, FL",-81.01141,29.19461
"3000 N HALIFAX AV, Daytona Beach, FL",-81.03521,29.264503
"1000 MARGARET DR, Daytona Beach, FL",-81.050354,29.214111
"600 OAK PL, Port Orange, FL",-80.99105,29.134243
"700 PRINGLE RD, Port Orange, FL",-81.01018,29.090136
"600 N ATLANTIC AV, Daytona Beach, FL",-81.01253,29.235699
"400 WHITNEY ST, Daytona Beach, FL",-81.02762,29.200327
"0 S OCEAN AV, Daytona Beach, FL",-81.011,29.232729
"800 MASON AV, Daytona Beach, FL",-81.04272,29.22169
"500 NORTH ST, Daytona Beach, FL",-81.03109,29.220789
"1800 S WOODLAND BLVD, DeLand, FL",-81.30459,29.061243
"800 MASON AV, Daytona Beach, FL",-81.04272,29.22169
"2000 CRANE LAKES BLVD, Port Orange, FL",-81.05254,29.10012
"1500 N NOVA RD, Holly Hill, FL",-81.05897,29.240595
"900 CITRUS TREE DR, Orange City, FL",-81.28663,28.940523
"1800 SR 44, New Smyrna Beach, FL",-80.94232,29.01441
"2600 ENTERPRISE RD, Orange City, FL",-81.29356,28.914335
"400 N ATLANTIC AV, Daytona Beach, FL",-81.01117,29.232887
"1400 BEVILLE RD, Daytona Beach, FL",-81.03818,29.171354
"900 N WOODLAND BLVD, DeLand, FL",-81.304,29.042973
"600 LARRY DRIVE, DeLand, FL",-81.297714,29.018644
"5100 ORANGE AV, Port Orange, FL",-80.98466,29.126211
"5200 WOOD ST, Port Orange, FL",-80.9879,29.12417
"5900 PARK RIDGE DR, Port Orange, FL",-81.001305,29.094145
"3500 FOREST BRANCH DR, Port Orange, FL",-81.0376,29.154602
"1400 HENSLEY DR, DeLand, FL",-81.29189,29.05203
"200 AUTUMN TR, Port Orange, FL",-81.02483,29.143435
"1700 N WOODLAND BLVD, DeLand, FL",-81.30458,29.061018
"1700 N WOODLAND BLVD, DeLand, FL",-81.30458,29.061018
"100 S RIDGEWOOD AV, Daytona Beach, FL",-81.03168,29.227274
"4500 CLYDE MORRIS BLVD, Port Orange, FL",-81.03151,29.135624
"1300 WOODBINE ST, Daytona Beach, FL",-81.03663,29.174019
"800 VERNON ST, Daytona Beach, FL",-81.022705,29.1943
"700 FELT FERN LN, DeLand, FL",-81.32926,29.038404
"1000 S BEACH ST, Daytona Beach, FL",-81.01141,29.19461
"1200 8TH ST, Daytona Beach, FL",-81.05875,29.23057
"600 JIMMY ANN DR, Daytona Beach, FL",-81.06651,29.20486
"1300 S RIDGEWOOD AV, Daytona Beach, FL",-81.04362,29.24923
"2400 S WOODLAND BLVD, DeLand, FL",-81.308586,29.07399
"700 N RIDGEWOOD AV, Daytona Beach, FL",-81.0373,29.237602
"300 N WOODLAND BLVD, DeLand, FL",-81.30358,29.031775
"300 S ATLANTIC AV, Daytona Beach, FL",-81.005745,29.221844
"1600 TOWN PARK DR, Port Orange, FL",-81.049706,29.137098
"1400 S WOODLAND BLVD, DeLand, FL",-81.30431,29.052017
"300 PRINCE EDWARD CT, Port Orange, FL",-81.03432,29.129578
"400 COLT PL, Daytona Beach, FL",-81.022736,29.202274
"1200 SAXON BLVD, Orange City, FL",-81.27892,28.911192
"100 MOONSTONE CT, Port Orange, FL",-81.012085,29.141712
"500 S MARTIN LUTHER KING BLVD, Daytona Beach, FL",-81.024414,29.200855
"1600 BIG TREE RD, Daytona Beach, FL",-81.040924,29.155998
"5400 PINELAND AV, Port Orange, FL",-80.98378,29.11997
"800 CRAIG ST, New Smyrna Beach, FL",-80.931015,29.036657
"200 SANDY LANE, New Smyrna Beach, FL",-80.937126,29.045397
"100 E NEW YORK AV, DeLand, FL",-81.303345,29.028088
"1400 S NOVA RD, Daytona Beach, FL",-81.0292,29.179195
"1100 N TRACY DR, Port Orange, FL",-81.034904,29.127272
"100 NORMA DR, Daytona Beach, FL",-81.03515,29.205797
"100 MAPLEWOOD DR, Daytona Beach, FL",-81.05143,29.218163
"3000 PRINCETON AV, Daytona Beach, FL",-81.032455,29.266506
"200 N RIDGEWOOD AV, Daytona Beach, FL",-81.03271,29.229166
"5200 ROGERS AV, Port Orange, FL",-80.98139,29.126284
"2200 HONTOON RD, DeLand, FL",-81.35158,28.983072
"200 W HOWRY AV, DeLand, FL",-81.30557,29.026274
"5600 TOURO DR, Port Orange, FL",-81.00114,29.113497
"5600 ISABELLE AV, Port Orange, FL",-80.98213,29.117352
"4400 EASTPORT PARK WAY, Port Orange, FL",-80.991104,29.131268
"1700 S WOODLAND BLVD, DeLand, FL",-81.30458,29.061018
"700 PRINGLE RD, Port Orange, FL",-81.01018,29.090136
"1500 DUNLAWTON AV, Port Orange, FL",-81.0241,29.115534
"800 ORANGE AVE, Daytona Beach, FL",-81.04244,29.23758
"100 S RIDGEWOOD AV, Daytona Beach, FL",-81.03168,29.227274
"200 COUNTRYSIDE DR, Orange City, FL",-81.26149,28.946795
"1500 SAN MARCO DR, Ormond Beach, FL",-81.11238,29.250788
"600 TUCKER ST, Daytona Beach, FL",-81.03835,29.218044
"500 FRANCES TER, Daytona Beach, FL",-81.00444,29.214252
"2900 LANTERN DR, South Daytona, FL",-81.00681,29.158096
"700 RIDGEWOOD AV, Holly Hill, FL",-81.037285,29.237574
"1600 TAYLOR RD, Port Orange, FL",-81.03761,29.102337
"200 W HOWRY AV, DeLand, FL",-81.30557,29.026274
"200 N HOLLYWOOD AV, Daytona Beach, FL",-81.01366,29.22862
"800 MASON AV, Daytona Beach, FL",-81.04272,29.22169
"100 KING EIDER CT, Daytona Beach, FL",-81.05207,29.144207
"100 N KEECH ST, Daytona Beach, FL",-81.037,29.204704
"700 BERKSHIRE RD, Daytona Beach, FL",-81.0562,29.21307
"1100 W WILLOW RUN DR, Port Orange, FL",-81.0284,29.12636
"1000 CITY CENTER CIR, Port Orange, FL",-81.02168,29.126282
"1700 DUNLAWTON AV, Port Orange, FL",-81.02574,29.110687
"1700 DUNLAWTON AV, Port Orange, FL",-81.02574,29.110687
"100 REGENCY DR, Port Orange, FL",-81.03291,29.133593
"400 PINEVIEW DR, Orange City, FL",-81.2624,28.943138
"2600 ENTERPRISE RD, Orange City, FL",-81.29356,28.914335
"1200 FLORAL SPRINGS BLVD, Port Orange, FL",-81.03014,29.15448
"5400 TAYLOR AV, Port Orange, FL",-80.98299,29.120996
"1200 WOODCREST DR, Daytona Beach, FL",-81.042656,29.17104
"100 HARRISON RD, Daytona Beach, FL",-80.99378,29.19081
"1700 PATTERSON AV, DeLand, FL",-81.29872,29.059416
"200 W HOWRY AV, DeLand, FL",-81.30557,29.026274
"3800 CHERRY GROVE CT, Port Orange, FL",-81.04051,29.14065
"900 HUNTERS CREEK DR, DeLand, FL",-81.32478,29.04431
"300 N ATLANTIC AV, Daytona Beach, FL",-81.0105,29.231506
"600 BRANCH DR, Port Orange, FL",-81.013695,29.097254
"2300 W INTL SPEEDWAY BLVD, Daytona Beach, FL",-81.08161,29.177591
"1200 S BEACH ST, Daytona Beach, FL",-81.00949,29.191027
"2300 SR 44, New Smyrna Beach, FL",-80.96003,29.013283
"6000 SABAL HAMMOCK CIR, Port Orange, FL",-81.0338,29.076973
"5200 TAYLOR AV, Port Orange, FL",-80.983,29.124365
"200 GRAHAM ST, Daytona Beach, FL",-81.03084,29.205027
"1500 QUEEN PALM DR, Edgewater, FL",-80.91379,28.974041
"800 N NOVA RD, Daytona Beach, FL",-81.04738,29.219782
"800 MASON AV, Daytona Beach, FL",-81.04272,29.22169
"800 MASON AV, Daytona Beach, FL",-81.04272,29.22169
"1500 BEVILLE RD, Daytona Beach, FL",-81.04019,29.170492
"1600 N WOODLAND BLVD, DeLand, FL",-81.304565,29.060051
"2300 S RIDGEWOOD AV, Edgewater, FL",-80.89121,28.964567
"2500 BELMONT AV, New Smyrna Beach, FL",-80.94608,29.063202
"500 MASON AV, Daytona Beach, FL",-81.03365,29.225517
"200 W HOWRY AV, DeLand, FL",-81.30557,29.026274
"200 SEABREEZE BLVD, Daytona Beach, FL",-81.018005,29.233555
"1600 N WOODLAND BLVD, DeLand, FL",-81.304565,29.060051
"200 N CLARA AV, DeLand, FL",-81.3076,29.030016
"3900 SUNSET COVE DR, Port Orange, FL",-81.04246,29.135448
"1600 N WOODLAND BLVD, DeLand, FL",-81.304565,29.060051
"1000 S BEACH ST, Daytona Beach, FL",-81.01141,29.19461
"300 S PENINSULA DR, Daytona Beach, FL",-81.01038,29.22064
"2400 S RIDGEWOOD AV, South Daytona, FL",-80.99969,29.167402
"1900 SR 44, New Smyrna Beach, FL",-80.944725,29.013723
"2500 N DIXIE FREEWAY, New Smyrna Beach, FL",-80.94504,29.063732
"1300 BEVILLE RD, Daytona Beach, FL",-81.03461,29.172853
"100 WINDSOR DR, Port Orange, FL",-81.03167,29.134632
"300 GRANDE SUNNINGDALE LOOP, Daytona Beach, FL",-81.09938,29.170614
"300 KINGSTON AV, Daytona Beach, FL",-81.03049,29.224953
"2200 INDIA PALM DR, Edgewater, FL",-80.900345,28.96205
"200 E FRENCH AV, Orange City, FL",-81.29722,28.952276
"800 MASON AV, Daytona Beach, FL",-81.04272,29.22169
"700 EARL ST, Daytona Beach, FL",-81.01077,29.229479
"200 N OLEANDER AV, Daytona Beach, FL",-81.01278,29.228928
"500 N RIDGEWOOD AV, Daytona Beach, FL",-81.035446,29.234215
"600 OLD TREELINE RD, DeLand, FL",-81.31405,29.08944
"1600 SPRING GARDEN CT, Holly Hill, FL",-81.06463,29.248857
"900 HUNTERS CREEK DR, DeLand, FL",-81.32478,29.04431
"1200 MAIN ST, Daytona Beach, FL",-81.006905,29.227144
"1100 S WOODLAND BLVD, DeLand, FL",-81.304146,29.04653
"600 N ATLANTIC AV, Daytona Beach, FL",-81.01253,29.235699
"1700 MASON AV, Daytona Beach, FL",-81.0674,29.211325
"1800 CREEKWATER BLVD, Port Orange, FL",-81.03354,29.055511
"200 OAKRIDGE BLVD, Daytona Beach, FL",-81.017204,29.23184
"1800 S RIDGEWOOD AV, Edgewater, FL",-80.89646,28.973457
"1800 S RIDGEWOOD AV, Edgewater, FL",-80.89646,28.973457
"700 HAWKS RIDGE RD, Port Orange, FL",-81.01051,29.09538
"600 E 3RD AV, New Smyrna Beach, FL",-80.89849,29.02874
"1100 N ATLANTIC AV, Daytona Beach, FL",-81.01659,29.244127
"100 CYPRESS POND RD, Port Orange, FL",-81.03322,29.097612
"300 BOYLSTON AV, Daytona Beach, FL",-81.02764,29.259846
"200 N HOLLY AV, Orange City, FL",-81.29783,28.94965
"1000 BERKSHIRE RD, Daytona Beach, FL",-81.06062,29.220545
"800 SWIFT ST, Daytona Beach, FL",-81.033646,29.223808
"2900 PINE TREE DR, Edgewater, FL",-80.900986,28.947214
"600 MAGNOLIA AV, Daytona Beach, FL",-81.04144,29.23399
"6800 VINTAGE LN, Port Orange, FL",-81.03211,29.053835
"1500 S NOVA RD, Daytona Beach, FL",-81.02897,29.177477
"3000 LIME TREE DR, Edgewater, FL",-80.89641,28.945984
"1400 ARECA PALM DR, Port Orange, FL",-81.04638,29.109392
"200 W HAVEN RD, DeLand, FL",-81.30509,29.011854
"200 W HOWRY AV, DeLand, FL",-81.30557,29.026274
"1500 RIDGEWOOD AV, Holly Hill, FL",-81.04542,29.252542
"300 N WOODLAND BLVD, DeLand, FL",-81.30358,29.031775
"2200 GARFIELD DR, South Daytona, FL",-81.0073,29.167627
"800 MASON AV, Daytona Beach, FL",-81.04272,29.22169
"200 FARMBROOK RD, Port Orange, FL",-80.97633,29.114017
"6400 WHIT CT, Port Orange, FL",-81.03337,29.065975
"700 FIELDSTONE AV, Port Orange, FL",-81.02373,29.140417
"1100 KEY LARGO CIR, Port Orange, FL",-81.02324,29.068933
"1500 N NOVA RD, Holly Hill, FL",-81.05897,29.240595
"300 N HILL AVE, DeLand, FL",-81.28282,29.031984
"1000 W INTL SPEEDWAY BLVD, Daytona Beach, FL",-81.040474,29.203226
"200 BIRKDALE DR, Daytona Beach, FL",-81.117485,29.186396
"2600 TULANE AV, Daytona Beach, FL",-81.03032,29.262445
"500 W CENTRAL AV, Orange City, FL",-81.305084,28.949667
"1500 PINE TREE DR, Edgewater, FL",-80.912926,28.974354
"400 S ATLANTIC AV, Daytona Beach, FL",-81.00481,29.220016
"1500 DUNLAWTON AVE, Port Orange, FL",-81.0241,29.115534
"300 JOY RD, South Daytona, FL",-80.99562,29.15825
"1900 EIDSON DR, DeLand, FL",-81.28868,29.062952
"1500 S WOODLAND BLVD, DeLand, FL",-81.30442,29.055216
"1500 VIRGINIA AV, Daytona Beach, FL",-81.010345,29.185303
"800 N RIDGEWOOD AV, Daytona Beach, FL",-81.03826,29.239365
"3300 RIDGEWOOD AVE, Port Orange, FL",-80.99105,29.150328
"100 BERMUDA PETREL CT, Daytona Beach, FL",-81.0591,29.157103
"2400 S PENINSULA DR, Daytona Beach, FL",-80.99384,29.19074
"2600 S WOODLAND BLVD, DeLand, FL",-81.31468,29.078646
"200 LA CASA DRIVE, New Smyrna Beach, FL",-80.97487,29.012259
"200 N ADAMS ST, Daytona Beach, FL",-81.036934,29.206722
"700 W INTL SPEEDWAY BLVD, Daytona Beach, FL",-81.031715,29.206764
"700 W INTL SPEEDWAY BLVD, Daytona Beach, FL",-81.031715,29.206764
"5700 DOGWOOD RD, Port Orange, FL",-81.01329,29.108564
"1400 S NOVA RD, Daytona Beach, FL",-81.0292,29.179195
"1200 PLYMOUTH PL, Daytona Beach, FL",-81.032974,29.168734
"900 N WOODLAND BLVD, DeLand, FL",-81.304,29.042973
"500 HARVEY AV, Daytona Beach, FL",-81.01023,29.22408
"1400 N ATLANTIC AV, Daytona Beach, FL",-81.019165,29.249487
"100 GRAY DOVE CT, Daytona Beach, FL",-81.05767,29.157822
"100 N RIVERSIDE DR, Edgewater, FL",-80.904755,28.99296
"600 MOONPENNY CIR, Port Orange, FL",-80.99871,29.109196
"2500 ENTERPRISE RD, Orange City, FL",-81.29627,28.919147
"700 S ATLANTIC AV, Ormond Beach, FL",-81.03111,29.274124
"1300 NUTWOOD DR, DeLand, FL",-81.292816,29.005669
"1300 GINSBERG DR, Daytona Beach, FL",-81.057495,29.211246
"1400 S RIDGEWOOD AV, Daytona Beach, FL",-81.04472,29.251223
"500 NORTH ST, Daytona Beach, FL",-81.03109,29.220789
"500 MAIN ST, Daytona Beach, FL",-81.01151,29.225492
"1100 POWERS AV, Holly Hill, FL",-81.04955,29.242878
"400 WHITNEY ST, Daytona Beach, FL",-81.02762,29.200327
"500 SEABREEZE BLVD, Daytona Beach, FL",-81.01445,29.234837
"200 W CAROLINA AV, DeLand, FL",-81.30729,29.025389
"100 S RIDGEWOOD AV, Daytona Beach, FL",-81.03168,29.227274
"800 S FLAGLER AV, Edgewater, FL",-80.9102,28.98368
"700 W PLYMOUTH AVE, DeLand, FL",-81.31644,29.042604
"1800 PINE TREE DR, Edgewater, FL",-80.91048,28.968801
"400 PURSLEY DR, DeLand, FL",-81.26307,28.979067
"800 MASON AV, Daytona Beach, FL",-81.04272,29.22169
"1200 E MINNESOTA AV, DeLand, FL",-81.27927,29.035633
"500 SEABREEZE BLVD, Daytona Beach, FL",-81.01445,29.234837
"200 S ADELLE AV, DeLand, FL",-81.311676,29.02611
"300 E WISCONSIN AV, Orange City, FL",-81.29617,28.959547
"200 S LANVALE AV, Daytona Beach, FL",-81.044495,29.200125
"300 S WOODLAND BLVD, DeLand, FL",-81.30332,29.024343
"100 WESTWOOD DR, Daytona Beach, FL",-81.04159,29.168436
"1600 DUNLAWTON AV, Port Orange, FL",-81.02535,29.111927
"600 HARVEY AV, Daytona Beach, FL",-81.00962,29.224298
"500 S BEACH ST, Daytona Beach, FL",-81.01585,29.204315
"900 LOCKHART ST, Daytona Beach, FL",-81.02385,29.191858
"300 N RIDGEWOOD AV, Daytona Beach, FL",-81.03404,29.231602
"1100 SOUTHWINDS DR, Port Orange, FL",-81.02795,29.143097
"900 SAND CREST DR, Port Orange, FL",-81.004616,29.1209
"900 SAND CREST DR, Port Orange, FL",-81.004616,29.1209
"600 MARLENE DR, Holly Hill, FL",-81.04067,29.2345
"2300 SR 44, New Smyrna Beach, FL",-80.96003,29.013283
"5400 S WILLIAMSON BLVD, Port Orange, FL",-81.03873,29.11067
"600 WHITEHALL ST, Daytona Beach, FL",-81.0217,29.199526
"100 DOLPHIN FLEET CIR, Daytona Beach, FL",-81.03697,29.155933
"900 N ATLANTIC AV, Daytona Beach, FL",-81.014946,29.240704
"200 BOB WHITE CT, Daytona Beach, FL",-81.046425,29.143261
"700 BARLOW CIR, Port Orange, FL",-80.98473,29.120459
"1800 COCO PALM DR, Edgewater, FL",-80.899765,28.972408
"200 W HOWRY AVE, DeLand, FL",-81.30557,29.026274
"1200 9TH ST, Daytona Beach, FL",-81.05918,29.231813
"600 N WOODLAND BLVD, DeLand, FL",-81.303734,29.037384
"200 W VOLUSIA AV, DeLand, FL",-81.30517,29.01551
"500 ALICE PL, South Daytona, FL",-81.00549,29.16421
"2400 W INTL SPEEDWAY BLVD, Daytona Beach, FL",-81.08165,29.177538
"100 SPRING DR, Port Orange, FL",-81.02042,29.143787
"700 BELLEVUE AV, Daytona Beach, FL",-81.0235,29.193867
"700 S PALMETTO AV, Daytona Beach, FL",-81.014915,29.198612
"900 NAVEL ORANGE DR, Orange City, FL",-81.28641,28.93994
"1000 W INTL SPEEDWAY BLVD, DeLand, FL",-81.321075,29.054445
"2300 SILVER PALM DR, Edgewater, FL",-80.91717,28.95428
"1600 RIDGEWOOD AV, Holly Hill, FL",-81.04696,29.25573
"1600 BIG TREE RD, Daytona Beach, FL",-81.040924,29.155998
"100 FRAZAR RD, Daytona Beach, FL",-81.002075,29.205502
"300 W NEW ST, DeLand, FL",-81.30853,29.023628
"1100 S WOODLAND BLVD, DeLand, FL",-81.304146,29.04653
"100 UNIVERSITY BLVD, Daytona Beach, FL",-81.02277,29.239689
"1700 S ATLANTIC AVE, New Smyrna Beach, FL",-80.889656,29.025963
"200 N BEACH ST, Daytona Beach, FL",-81.020355,29.214243
"100 WINNERS CIRCLE DR, Daytona Beach, FL",-81.06914,29.203669
"300 EDGEWOOD BLVD, DeLand, FL",-81.316315,29.02395
"1300 DUNLAWTON AV, Port Orange, FL",-81.01251,29.123133
"200 N BEACH ST, Daytona Beach, FL",-81.020355,29.214243
"400 S HOLLY AV, Orange City, FL",-81.29781,28.945114
"300 COUNTRY CLUB OVAL, Daytona Beach, FL",-81.01185,29.190208
"700 MARSHALL CIR, Port Orange, FL",-80.98469,29.1184
"200 REVA ST, Daytona Beach, FL",-81.03387,29.203777
"100 SHADY BRANCH TR, Ormond Beach, FL",-81.09557,29.28083
"200 FENTRESS BLVD, Daytona Beach, FL",-81.07932,29.191227
"400 N ATLANTIC AV, Daytona Beach, FL",-81.01117,29.232887
"100 W TURGOT AV, Edgewater, FL",-80.90416,28.980583
"700 HEALTH CARE DR, Orange City, FL",-81.28811,28.904211
"1200 HAND AV, Ormond Beach, FL",-81.08045,29.261766
"700 W PLYMOUTH AV, DeLand, FL",-81.31644,29.042604
"300 BEVILLE RD, Daytona Beach, FL",-81.009964,29.183208
"300 AUBURN DR, Daytona Beach, FL",-81.031845,29.260612
"2800 N PENINSULA DR, Daytona Beach, FL",-81.033554,29.263449
"1700 MASON AV, Daytona Beach, FL",-81.0674,29.211325
"6200 S WILLIAMSON, Port Orange, FL",-81.026596,29.077026
"300 N ATLANTIC AV, Daytona Beach, FL",-81.0105,29.231506
"1800 RIDGEWOOD AV, Holly Hill, FL",-81.04957,29.26044
"5600 SWAN LAKE DR, Port Orange, FL",-81.0514,29.098362
"4200 JACKSON ST, Port Orange, FL",-81.00199,29.128601
"2500 ENTERPRISE RD, Orange City, FL",-81.29627,28.919147
"1500 CENTER AV, Holly Hill, FL",-81.05391,29.249044
"600 JIMMY ANN DR, Daytona Beach, FL",-81.06651,29.20486
"100 S RIDGEWOOD AV, Daytona Beach, FL",-81.03168,29.227274
"5600 BALD EAGLE DR, Port Orange, FL",-81.05051,29.100828
"5600 BALD EAGLE DR, Port Orange, FL",-81.05051,29.100828
"2100 S NOVA RD, South Daytona, FL",-81.023254,29.161232
"800 COMMONWEALTH BLVD, Port Orange, FL",-80.9906,29.12431
"2100 PURPLE MARTIN WAY, Port Orange, FL",-81.04866,29.096857
"200 MEADOW LAKE DR, Edgewater, FL",-80.88869,28.948128
"800 BRENTWOOD DR, Daytona Beach, FL",-81.04445,29.22411
"800 LAKEWOOD DR, Holly Hill, FL",-81.05144,29.23384
"2100 TRAVELERS PALM DR, Edgewater, FL",-80.9109,28.960608
"400 E INTL SPEEDWAY BLVD, Daytona Beach, FL",-81.02422,29.210258
"200 N NOVA RD, Ormond Beach, FL",-81.082726,29.284012
"1600 S RIDGEWOOD AV, South Daytona, FL",-81.008514,29.183601
"600 W INDIANA AV, DeLand, FL",-81.31395,29.028984
"100 N NOVA RD, Ormond Beach, FL",-81.08272,29.280264
"500 S RIDGEWOOD AV, Daytona Beach, FL",-81.035446,29.234215
"600 MCCORMICK ST, Daytona Beach, FL",-81.02521,29.19824
"1600 JONES ST, South Daytona, FL",-81.0098,29.183079
"1700 S CLYDE MORRIS BLVD, Daytona Beach, FL",-81.03874,29.165956
"6000 HERON POND DR, Port Orange, FL",-81.03486,29.081108
"800 S GRANDVIEW AV, Daytona Beach, FL",-81.005684,29.216383
"6300 S WILLIAMSON BLVD, Port Orange, FL",-81.023575,29.072975
"1700 MASON AV, Daytona Beach, FL",-81.0674,29.211325
"700 N ATLANTIC AV, Daytona Beach, FL",-81.013336,29.237368
"400 N NOVA RD, Ormond Beach, FL",-81.08367,29.28611
"2600 S WOODLAND BLVD, DeLand, FL",-81.31468,29.078646
"100 N WILLIAMSON BLVD, Daytona Beach, FL",-81.08155,29.185951
"900 STATE AV, Holly Hill, FL",-81.04025,29.240398
"1200 W INTL SPEEDWAY BLVD, Daytona Beach, FL",-81.052155,29.198473
"300 S VOLUSIA AV, Orange City, FL",-81.29886,28.947517
"900 S BEACH ST, Ormond Beach, FL",-81.044556,29.263575
"200 W GRANADA BLVD, Ormond Beach, FL",-81.0622,29.282969
"300 EDGEWOOD BLVD, DeLand, FL",-81.316315,29.02395
"1100 ESSEX RD, Daytona Beach, FL",-81.059326,29.221346
"100 S BEACH ST, Daytona Beach, FL",-81.01934,29.212149
"900 W OHIO AV, Orange City, FL",-81.30723,28.939512
"2800 N ATLANTIC AV, Daytona Beach, FL",-81.02736,29.265736
"800 N HILL AV, DeLand, FL",-81.28252,29.016836
"100 KINGSTON AV, Daytona Beach, FL",-81.026,29.226768
"100 TARRACINA WAY, Daytona Beach, FL",-81.08503,29.236444
"200 SANDY LN, New Smyrna Beach, FL",-80.937126,29.045397
"100 DOLPHIN FLEET CIR, Daytona Beach, FL",-81.03697,29.155933
"4500 SPRUCE CREEK RD, Port Orange, FL",-80.99305,29.1284
"2400 N VOLUSIA AV, Orange City, FL",-81.298645,28.966324
"1800 W INTL SPEEDWAY BLVD, Daytona Beach, FL",-81.067375,29.192913
"500 HARRISON PLACE DR, DeLand, FL",-81.295685,29.019907
"5600 WOOD ST, Port Orange, FL",-80.98712,29.117311
"1700 HUNTINGTON VILLAGE CIR, Daytona Beach, FL",-81.064095,29.201515
"100 N AMELIA AV, DeLand, FL",-81.299286,29.028229
"800 SAXON BLVD, Orange City, FL",-81.291756,28.911217
"2700 ENTERPRISE ROAD, Orange City, FL",-81.29091,28.909315
"2400 ENTERPRISE ROAD, Orange City, FL",-81.298256,28.922174
"400 N NOVA RD, Ormond Beach, FL",-81.08367,29.28611
"400 WHITNEY ST, Daytona Beach, FL",-81.02762,29.200327
"1500 VIRGINIA AV, Daytona Beach, FL",-81.010345,29.185303
"1100 W INTL SPEEDWAY BLVD, Daytona Beach, FL",-81.045296,29.201279
"300 ORANGE BLOSSOM DR, South Daytona, FL",-81.00789,29.182251
"500 HARVEY AV, Daytona Beach, FL",-81.01023,29.22408
"200 S ELSASSER ST, DeLand, FL",-81.31896,29.026003
"100 S RIDGEWOOD AV, Daytona Beach, FL",-81.03168,29.227274
"500 E MICHIGAN AV, DeLand, FL",-81.29418,29.033634
"1700 W INTL SPEEDWAY BLVD, Daytona Beach, FL",-81.06329,29.194391
"500 N PENINSULA DR, Daytona Beach, FL",-81.01613,29.232456
"100 RIO VISTA DR, Edgewater, FL",-80.91059,28.999525
"400 OAKRIDGE BLVD, Daytona Beach, FL",-81.01491,29.23272
"1100 SAXON BLVD, Orange City, FL",-81.28288,28.91129
"1600 RICHARD PETTY BLVD, Daytona Beach, FL",-81.054115,29.193819
"2400 S RIDGEWOOD AV, South Daytona, FL",-80.99969,29.167402
"700 W PLYMOUTH AV, DeLand, FL",-81.31644,29.042604
"600 S CLYDE MORRIS BLVD, Daytona Beach, FL",-81.05059,29.192335
"1200 SAXON BLVD, Orange City, FL",-81.27892,28.911192
"2500 S VOLUSIA AVE, Orange City, FL",-81.30108,28.917318
"900 REED CANAL RD, South Daytona, FL",-81.01403,29.156801
"500 NORTH ST, Daytona Beach, FL",-81.03109,29.220789
"300 TAYLOR AV, Daytona Beach, FL",-81.02844,29.221123
"200 BAYBERRY LAKES BLVD, Daytona Beach, FL",-81.12224,29.19286
"1800 LPGA BLVD, Daytona Beach, FL",-81.07511,29.231876
"700 N ATLANTIC AV, Daytona Beach, FL",-81.013336,29.237368
"200 S ELSASSER ST, DeLand, FL",-81.31896,29.026003
"400 S CENTER ST, Ormond Beach, FL",-81.06436,29.268314
"400 N WILD OLIVE AV, Daytona Beach, FL",-81.01305,29.231615
"500 N NOVA RD, Ormond Beach, FL",-81.0873,29.292736
"4000 BRUNER RD, Port Orange, FL",-81.03116,29.14049
"300 N BEACH ST, Daytona Beach, FL",-81.02169,29.217026
"1700 DUNLAWTON AV, Port Orange, FL",-81.02574,29.110687
"1700 MASON AV, Daytona Beach, FL",-81.0674,29.211325
"300 N RIDGEWOOD AV, Daytona Beach, FL",-81.03404,29.231602
"200 S ELSASSER ST, DeLand, FL",-81.31896,29.026003
"400 ALEATHA DR, Daytona Beach, FL",-81.026924,29.186188
"300 SANCHEZ AV, Ormond Beach, FL",-81.07143,29.29841
"100 NORMA DR, Daytona Beach, FL",-81.03515,29.205797
"1700 WESTVIEW DR, DeLand, FL",-81.34109,29.031675
"100 MASON AV, Holly Hill, FL",-81.02665,29.228561
"300 E NEW YORK AVE, DeLand, FL",-81.29906,29.028084
"5900 SPRUCE CREEK RD, Port Orange, FL",-80.993126,29.094614
"1200 9TH ST, Daytona Beach, FL",-81.05918,29.231813
"1500 S WOODLAND BLVD, DeLand, FL",-81.30442,29.055216
"100 RIDGEWOOD AV, Holly Hill, FL",-81.03167,29.227262
"100 WILLIAMSON BLVD, Ormond Beach, FL",-81.113144,29.25603
"100 INWOOD AV, New Smyrna Beach, FL",-80.93234,29.021395
"1400 S PALMETTO AV, Daytona Beach, FL",-81.00824,29.186356
"500 W RICH AV, DeLand, FL",-81.31188,29.029823
"2300 W INTL SPEEDWAY BLVD, Daytona Beach, FL",-81.08161,29.177591
"600 ROBERTS RD, Edgewater, FL",-80.89111,28.94742
"1100 BEVILLE RD, Daytona Beach, FL",-81.02695,29.17603
"600 3RD AV, New Smyrna Beach, FL",-80.89849,29.02874
"600 E 2ND AV, New Smyrna Beach, FL",-80.898575,29.029697
"600 E 3RD AV, New Smyrna Beach, FL",-80.89849,29.02874
"20200 NEWPORT SOUND PL, New Smyrna Beach, FL",-80.92641,29.005339
"800 CHICKADEE DR, Port Orange, FL",-81.0107,29.119453
"300 ORANGE AV, Daytona Beach, FL",-81.02097,29.206953
"100 DOLPHIN FLEET CIR, Daytona Beach, FL",-81.03697,29.155933
"600 SEABREEZE BLVD, Daytona Beach, FL",-81.01341,29.235214
"1700 W INTL SPEEDWAY BLVD, Daytona Beach, FL",-81.06329,29.194391
"1100 S PALMETTO AV, Daytona Beach, FL",-81.01145,29.192392
"100 S OLEANDER AV, Daytona Beach, FL",-81.01021,29.223906
"500 N OLEANDER AV, Daytona Beach, FL",-81.015076,29.232824
"600 SHADY PL, Daytona Beach, FL",-81.01939,29.191362
"1600 N US HWY 1, Ormond Beach, FL",-81.13142,29.336
"1600 SEGRAVE ST, South Daytona, FL",-81.01038,29.182032
"1000 15TH ST, Holly Hill, FL",-81.06031,29.246014
"800 PINEWOOD ST, Daytona Beach, FL",-81.0595,29.21482
"900 S SPRING GARDEN AV, DeLand, FL",-81.3238,29.013351
"2200 S NOVA RD, South Daytona, FL",-81.02298,29.160387
"900 CEDAR ST, Daytona Beach, FL",-81.03216,29.195448
"1200 FLORAL SPRINGS BLVD, Port Orange, FL",-81.03014,29.15448
"1300 S PALMETTO AV, Daytona Beach, FL",-81.00965,29.189043
"6000 SPRUCE POINT CIR, Port Orange, FL",-81.03455,29.09341
"900 W GRANADA BLVD, Ormond Beach, FL",-81.09353,29.274664
"400 JEAN ST, Daytona Beach, FL",-81.03517,29.196348
"600 E 3RD AV, New Smyrna Beach, FL",-80.89849,29.02874
"100 S BEACH ST, Ormond Beach, FL",-81.05435,29.283033
"300 SEARS AV, Daytona Beach, FL",-81.00771,29.215601
"100 MAY ST, Orange City, FL",-81.299194,28.95466
"100 CARL BRINKLEY CIR, Daytona Beach, FL",-81.00359,29.183414
"600 N ATLANTIC AV, Daytona Beach, FL",-81.01253,29.235699
"100 N RIDGEWOOD AV, Daytona Beach, FL",-81.03168,29.227274
"100 NORMA DR, Daytona Beach, FL",-81.03515,29.205797
"900 REED CANAL RD, South Daytona, FL",-81.01403,29.156801
"500 N GRANDVIEW AV, Daytona Beach, FL",-81.01276,29.233648
"3300 S NOVA RD, Port Orange, FL",-81.01729,29.149757
"25200 NEWPORT SOUND PL, New Smyrna Beach, FL",-80.92641,29.005339
"200 N WOODLAND BLVD, DeLand, FL",-81.30348,29.029968
"100 N RIDGEWOOD AV, Daytona Beach, FL",-81.03168,29.227274
"500 W HUBBARD AV, DeLand, FL",-81.311584,29.019049
"500 JIMMY ANN DR, Daytona Beach, FL",-81.06601,29.203135
"1000 N WOODLAND BLVD, DeLand, FL",-81.30409,29.044664
"1300 S PALMETTO AV, Daytona Beach, FL",-81.00965,29.189043
"100 MYRTLE LANE, Daytona Beach, FL",-81.01891,29.211258
"100 KINGSTON AV, Daytona Beach, FL",-81.026,29.226768
"700 CEDAR ST, Daytona Beach, FL",-81.02442,29.198584
"300 HARTFORD AV, Daytona Beach, FL",-81.02562,29.255478
"1300 NATURES WOOD BLVD, DeLand, FL",-81.29414,29.005732
"100 N RIDGEWOOD AV, Edgewater, FL",-80.907974,28.99167
"800 S KOTTLE CIR, Daytona Beach, FL",-81.02906,29.19933
"1700 MASON AV, Daytona Beach, FL",-81.0674,29.211325
"400 JEAN ST, Daytona Beach, FL",-81.03517,29.196348
"800 MAIN ST, Daytona Beach, FL",-81.00938,29.226261
"500 SEABREEZE BLVD, Daytona Beach, FL",-81.01445,29.234837
"5800 WESTPORT DR, Port Orange, FL",-81.002716,29.106394
"400 S CLARA AV, DeLand, FL",-81.30736,29.02257
"100 BAY ST, Daytona Beach, FL",-81.02045,29.2141
"300 S GRANDVIEW AV, Daytona Beach, FL",-81.0072,29.221466
"900 ROYAL OAK CT, Holly Hill, FL",-81.05979,29.251926
"100 WILLOW RUN, Ormond Beach, FL",-81.08158,29.27355
"2400 ENTERPRISE RD, Orange City, FL",-81.298256,28.922174
"300 NORTH ST, Daytona Beach, FL",-81.028824,29.221678
"100 KINGSTON AV, Daytona Beach, FL",-81.026,29.226768
"2000 W GRANADA BLVD, Ormond Beach, FL",-81.12937,29.253208
"2500 S RIDGEWOOD AV, Edgewater, FL",-80.887764,28.95817
"4100 HALIFAX DR, Port Orange, FL",-80.98514,29.142494
"700 COX ST, DeLand, FL",-81.29077,29.026672
"500 N THORPE AV, Orange City, FL",-81.294716,28.95246
"500 N THORPE AV, Orange City, FL",-81.294716,28.95246
"100 BRADDOCK AV, Daytona Beach, FL",-81.009834,29.218601
"500 SILVER BEACH AV, Daytona Beach, FL",-81.00319,29.212275
"300 MANGO TREE DR, Edgewater, FL",-80.91521,28.98642
"1200 W INTL SPEEDWAY BLVD, Daytona Beach, FL",-81.052155,29.198473
"3800 NOVA RD, Port Orange, FL",-81.00641,29.129889
"500 N RIDGEWOOD AV, Daytona Beach, FL",-81.035446,29.234215
"100 E MAGNOLIA AV, Daytona Beach, FL",-81.01913,29.210041
"500 LIVE OAK AV, Daytona Beach, FL",-81.02221,29.204138
"1700 DUNLAWTON AV, Port Orange, FL",-81.02574,29.110687
"4600 CLYDE MORRIS BLVD, Port Orange, FL",-81.02584,29.129583
"900 S ATLANTIC AV, Ormond Beach, FL",-81.02906,29.2691
"300 NORTH ST, Daytona Beach, FL",-81.028824,29.221678
"4600 CLYDE MORRIS BLVD, Port Orange, FL",-81.02584,29.129583
"1200 N WOODLAND BLVD, DeLand, FL",-81.3042,29.048323
"900 S PENINSULA DR, Daytona Beach, FL",-81.00759,29.214964
"1500 N NOVA RD, Holly Hill, FL",-81.05897,29.240595
"1600 BIG TREE RD, Daytona Beach, FL",-81.040924,29.155998
"2500 INDIA PALM DR, Edgewater, FL",-80.89802,28.956738
"800 SOUTH ST, Daytona Beach, FL",-81.025734,29.19575
"1500 OLD NDB RD, DeLand, FL",-81.27566,29.06736
"200 ROBERT ST, New Smyrna Beach, FL",-80.93313,29.020115
"1200 S NOVA RD, Daytona Beach, FL",-81.03003,29.183504
"600 ROBERTS RD, Edgewater, FL",-80.89111,28.94742
"1500 S WOODLAND BLVD, DeLand, FL",-81.30442,29.055216
"400 W INTL SPEEDWAY BLVD, Daytona Beach, FL",-81.02422,29.210258
"100 NARANGA DR, Edgewater, FL",-80.911865,28.999912
"1600 DUNN AV, Daytona Beach, FL",-81.0618,29.204676
"1300 HERBERT ST, Port Orange, FL",-81.018135,29.133081
"1800 ENTERPRISE AV, New Smyrna Beach, FL",-80.94261,29.025518
"3600 BEACON HILL RD, Port Orange, FL",-81.03583,29.147697
"500 LAFAYETTE ST, Port Orange, FL",-80.987526,29.139471
"200 E WISCONSIN AV, DeLand, FL",-81.30561,29.031694
"100 ONTARIO CT, Daytona Beach, FL",-81.02476,29.195782
"700 BUTLER BLVD, Daytona Beach, FL",-81.011894,29.231869
"200 ONTARIO CT, Daytona Beach, FL",-81.0255,29.195469
"1000 N US HWY 1, Ormond Beach, FL",-81.094864,29.305714
"400 BANANA CAY DR, South Daytona, FL",-80.997116,29.15898
"300 COUNTRY CLUB OVAL, Daytona Beach, FL",-81.01185,29.190208
"400 JEAN ST, Daytona Beach, FL",-81.03517,29.196348
"1400 W GRANADA BLVD, Ormond Beach, FL",-81.109146,29.260614
"1000 HAMPTON RD, Daytona Beach, FL",-81.04456,29.212029
"500 E DIVISION ST, DeLand, FL",-81.294754,29.01993
"1300 HILLCREST DR, Daytona Beach, FL",-81.05642,29.209085
"100 DOMICILIO AV, Ormond Beach, FL",-81.069725,29.306726
"600 TOMOKA RD, Daytona Beach, FL",-81.04171,29.2167
"100 S NOVA RD, Ormond Beach, FL",-81.08289,29.277311
"100 E VILLA CAPRI CIR, DeLand, FL",-81.30062,29.004707
"1400 1ST ST, DeLand, FL",-81.30152,29.004313
"1400 W GRANADA BLVD, Ormond Beach, FL",-81.109146,29.260614
"4600 CITY CENTER DR, Port Orange, FL",-81.021324,29.131893
"500 N ATLANTIC AV, Daytona Beach, FL",-81.011734,29.234045
"3800 CLYDE MORRIS BLVD, Port Orange, FL",-81.03526,29.142838
"500 RUTH ST, Daytona Beach, FL",-81.04004,29.215015
"400 N WILD OLIVE AV, Daytona Beach, FL",-81.01305,29.231615
"5300 PLANTATION HOME WAY, Port Orange, FL",-81.052086,29.115046
"100 W TURGOT AV, Edgewater, FL",-80.90416,28.980583
"200 FAIRVIEW AV, Daytona Beach, FL",-81.02565,29.22026
"800 BERKSHIRE RD, Daytona Beach, FL",-81.057846,29.215542
"1100 MASON AV, Daytona Beach, FL",-81.05407,29.2169
"300 COLUMBUS AV, New Smyrna Beach, FL",-80.90057,29.037327
"800 MASTHEAD LN, Edgewater, FL",-80.88098,28.94653
"3600 NANTUCKET ISLAND DR, Port Orange, FL",-81.03762,29.149408
"1300 N DEXTER DR, Port Orange, FL",-81.03751,29.121233
"2100 AIRPORT RD, Ormond Beach, FL",-81.13382,29.27383
"400 FLAGLER AV, New Smyrna Beach, FL",-80.8986,29.03856
"5200 ORANGE AV, Port Orange, FL",-80.98464,29.12478
"5300 BARHYDT AV, Port Orange, FL",-80.97891,29.121185
"100 MADISON AV, Daytona Beach, FL",-81.025276,29.225218
"100 PORPOISE BAY RD, Daytona Beach, FL",-81.05366,29.164465
"2900 S RIDGEWOOD AV, South Daytona, FL",-80.99445,29.15676
"400 S VOLUSIA AVE, Orange City, FL",-81.29886,28.946806
"500 JEAN ST, Daytona Beach, FL",-81.03416,29.194437
"4400 CHALMETTE CT, Port Orange, FL",-80.995384,29.130037
"100 W YELKCA TER, Edgewater, FL",-80.91288,29.00173
"800 BANBURY DR, Port Orange, FL",-81.01091,29.143555
"1000 AUDREY DR, Daytona Beach, FL",-81.0664,29.220228
"1700 MASON AV, Daytona Beach, FL",-81.0674,29.211325
"200 N RIDGEWOOD AV, Daytona Beach, FL",-81.03271,29.229166
"800 ORANGE AV, Daytona Beach, FL",-81.04244,29.23758
"500 AURORA ST, South Daytona, FL",-81.00823,29.173521
"800 S ATLANTIC AV, Ormond Beach, FL",-81.02993,29.271654
"12000 CAROLINES COVE, Ormond Beach, FL",-81.11346,29.262505
"6300 S WILLIAMSON BLVD, Port Orange, FL",-81.023575,29.072975
"700 HEINEMAN ST, Daytona Beach, FL",-81.05782,29.212255
"600 N BEACH ST, Daytona Beach, FL",-81.024284,29.223526
"900 LEWIS DR, Daytona Beach, FL",-81.05853,29.218351
"5800 S WILLIAMSON BLVD, Port Orange, FL",-81.031235,29.104725
"300 COUNTRY CLUB OVAL, Daytona Beach, FL",-81.01185,29.190208
"2700 N OLEANDER AV, Daytona Beach, FL",-81.03099,29.26542
"1700 MASON AV, Daytona Beach, FL",-81.0674,29.211325
